[
  {
    "id": "e0",
    "nameEng": "GINZA 300BAR NEXT",
    "addressEng": "1-2-14 Yurakucho | Murasaki Bldg B1F, Chiyoda 100-0006, Tokyo Prefecture",
    "nameChi": "GINZA 300BAR NEXT",
    "addressChi": "東京都千代田區有樂町 1-2-14",
    "phone": "+81 3-3593-8300",
    "lat": 35.67239,
    "long": 139.759949,
    "cities": 40,
    "country": 84,
    "stayTime": 1,
    "img": "https://jiroyiu.github.io/img/foodicon.png",
    "mapPin": "foodPin"
  },
  {
    "id": "e1",
    "nameEng": "Adan",
    "addressEng": "2-12-54 Takanawa, Minato, Tokyo Prefecture",
    "nameChi": "Adan",
    "addressChi": "東京都港區2-12-54 Takanawa",
    "phone": "+81 3-5444-4507",
    "lat": 35.636585,
    "long": 139.737457,
    "cities": 40,
    "country": 84,
    "stayTime": 1,
    "img": "https://jiroyiu.github.io/img/foodicon.png",
    "mapPin": "foodPin"
  },
  {
    "id": "e2",
    "nameEng": "Adito",
    "addressEng": "5-16-1 Komazawa, Setagaya 154-0012, Tokyo Prefecture",
    "nameChi": "Adito",
    "addressChi": "東京都世田谷5-16-1 Komazawa 154-0012",
    "phone": "+81 3-3703-8181",
    "lat": 35.622368,
    "long": 139.655616,
    "cities": 40,
    "country": 84,
    "stayTime": 1,
    "img": "https://jiroyiu.github.io/img/foodicon.png",
    "mapPin": "foodPin"
  },
  {
    "id": "e3",
    "nameEng": "Akakara Ebisu Nishiguchi",
    "addressEng": "1-9-3 Ebisunishi, Shibuya, Tokyo, Tokyo Prefecture, Kanto, Japan",
    "nameChi": "赤から 恵比寿西口店",
    "addressChi": "東京都涉谷區恵比寿1-9-3 恵比寿入船ビル 3F",
    "phone": "+81 3-5428-5155",
    "lat": 35.647171,
    "long": 139.708145,
    "cities": 40,
    "country": 84,
    "stayTime": 1,
    "img": "https://jiroyiu.github.io/img/foodicon.png",
    "mapPin": "foodPin"
  },
  {
    "id": "e4",
    "nameEng": "Asakusa Gyukatsu",
    "addressEng": "2-17-10 Kaminarimon | B1F Kaminarimon Uemura Bldg., Taito 111-0034, Tokyo Prefecture",
    "nameChi": "Asakusa Gyukatsu",
    "addressChi": "東京都台東区雷門2-17-10雷門上村ビルB1F",
    "phone": "+81 3-3842-800",
    "lat": 35.710941,
    "long": 139.795975,
    "cities": 40,
    "country": 84,
    "stayTime": 1,
    "img": "https://jiroyiu.github.io/img/foodicon.png",
    "mapPin": "foodPin"
  },
  {
    "id": "e5",
    "nameEng": "Asakusa Takomaru",
    "addressEng": "2-3-24 Asakusa, Taito, Tokyo, Tokyo Prefecture, Kanto, Japan",
    "nameChi": "Asakusa Takomaru",
    "addressChi": "東京都台東區2-3-24 Asakusa 111-0032",
    "phone": "+81 3-6802-8039",
    "lat": 35.714211,
    "long": 139.794434,
    "cities": 40,
    "country": 84,
    "stayTime": 1,
    "img": "https://jiroyiu.github.io/img/foodicon.png",
    "mapPin": "foodPin"
  },
  {
    "id": "e6",
    "nameEng": "Atelier Morimoto XEX",
    "addressEng": "7-21-19 Roppongi | 1 Field I.K.N. Roppongi Bldg., Minato 106-0032, Tokyo Prefecture",
    "nameChi": "Atelier 森本 XEX",
    "addressChi": "東京都港區7-21-19 Roppongi1 Field I.K.N. Roppongi Bldg. 106-0032",
    "phone": "+81 3-3479-0065",
    "lat": 35.663059,
    "long": 139.727386,
    "cities": 40,
    "country": 84,
    "stayTime": 1,
    "img": "https://jiroyiu.github.io/img/foodicon.png",
    "mapPin": "foodPin"
  },
  {
    "id": "e7",
    "nameEng": "Boteju Shibuya",
    "addressEng": "1-12-9 Shibuya | 102, Shibuya 150-0002, Tokyo Prefecture",
    "nameChi": "Boteju Shibuya",
    "addressChi": "東京都涉谷區1-12-9 Shibuya102 150-0002",
    "phone": "+81 3-3407-8636",
    "lat": 35.659996,
    "long": 139.704407,
    "cities": 40,
    "country": 84,
    "stayTime": 1,
    "img": "https://jiroyiu.github.io/img/foodicon.png",
    "mapPin": "foodPin"
  },
  {
    "id": "e8",
    "nameEng": "Cedros Daikanyama",
    "addressEng": "1-32-3 Ebisunishi, Shibuya, Tokyo, Tokyo Prefecture, Kanto, Japan",
    "nameChi": "Cedros Daikanyama",
    "addressChi": "東京都涉谷區1-32-3 EbisunishiD Tradgard Daikanyama 150-0021",
    "phone": "+81 3-3461-2279",
    "lat": 35.647564,
    "long": 139.704758,
    "cities": 40,
    "country": 84,
    "stayTime": 1,
    "img": "https://jiroyiu.github.io/img/foodicon.png",
    "mapPin": "foodPin"
  },
  {
    "id": "e9",
    "nameEng": "Chanko Tomoegata",
    "addressEng": "2-17-6 Ryogoku, Sumida 130-0026, Tokyo Prefecture",
    "nameChi": "Chanko 巴潟",
    "addressChi": "東京都墨田區2-17-6 Ryogoku 130-0026",
    "phone": "+81 3-3632-5600",
    "lat": 35.694935,
    "long": 139.792542,
    "cities": 40,
    "country": 84,
    "stayTime": 1,
    "img": "https://jiroyiu.github.io/img/foodicon.png",
    "mapPin": "foodPin"
  },
  {
    "id": "e10",
    "nameEng": "Curry House CoCo Ichibanya Shinjuku Station West Entrance",
    "addressEng": "1-2-12 Nishishinjuku, Shinjuku 160-0023, Tokyo Prefecture",
    "nameChi": "coco壱番屋（新宿站西口店）",
    "addressChi": "東京都新宿區1-2-12 Nishishinjuku 160-0023",
    "phone": "+81 3-3345-0775",
    "lat": 35.693188,
    "long": 139.699371,
    "cities": 40,
    "country": 84,
    "stayTime": 1,
    "img": "https://jiroyiu.github.io/img/foodicon.png",
    "mapPin": "foodPin"
  },
  {
    "id": "e11",
    "nameEng": "Donku",
    "addressEng": "1-14-2 Ebisunishi, Shibuya, Tokyo Prefecture",
    "nameChi": "Donku",
    "addressChi": "東京都涉谷區惠比壽西1-14-2 サンライズビル 1F",
    "phone": "+81 3-3464-9676",
    "lat": 35.647903,
    "long": 139.707798,
    "cities": 40,
    "country": 84,
    "stayTime": 1,
    "img": "https://jiroyiu.github.io/img/foodicon.png",
    "mapPin": "foodPin"
  },
  {
    "id": "e12",
    "nameEng": "Edomonjahyotan",
    "addressEng": "1-37-4 Asakusa, Taito, Tokyo Prefecture",
    "nameChi": "江戸もんじゃひょうたん",
    "addressChi": "東京都台東區1-37-4 Asakusa",
    "phone": "+81 3-3841-0589",
    "lat": 35.712555,
    "long": 139.796036,
    "cities": 40,
    "country": 84,
    "stayTime": 1,
    "img": "https://jiroyiu.github.io/img/foodicon.png",
    "mapPin": "foodPin"
  },
  {
    "id": "e13",
    "nameEng": "Elio Locanda Italiana",
    "addressEng": "2-5-2 Kojimachi, Kojimachi, Chiyoda 102-0083, Tokyo Prefecture",
    "nameChi": "Elio Locanda Italiana",
    "addressChi": "東京都千代田区麹町 2-5-2 半蔵門ハウス1F",
    "phone": "+81 3-3239-6771",
    "lat": 35.683353,
    "long": 139.740662,
    "cities": 40,
    "country": 84,
    "stayTime": 1,
    "img": "https://jiroyiu.github.io/img/foodicon.png",
    "mapPin": "foodPin"
  },
  {
    "id": "e14",
    "nameEng": "Fufutei",
    "addressEng": "1-26-6, Kabukicho, Shinjuku-ku, Tokyo, 160-0021",
    "nameChi": "Fufutei",
    "addressChi": "東京都新宿区歌舞伎町1-26-6 灯ビル6F 160-0021",
    "phone": "+81 3-3353-2519",
    "lat": 35.695049,
    "long": 139.700454,
    "cities": 40,
    "country": 84,
    "stayTime": 1,
    "img": "https://jiroyiu.github.io/img/foodicon.png",
    "mapPin": "foodPin"
  },
  {
    "id": "e15",
    "nameEng": "Ginza 300BAR 5Chome",
    "addressEng": "5-9-11 Ginza | Fazenda Bldg. B1F, Ginza, Chuo 104-0061, Tokyo Prefecture",
    "nameChi": "Ginza 300BAR 5Chome",
    "addressChi": "東京都中央區Ginza5-9-11 GinzaFazenda Bldg. B1F 104-0061",
    "phone": "+81 3-3572-6300",
    "lat": 35.669804,
    "long": 139.76506,
    "cities": 40,
    "country": 84,
    "stayTime": 1,
    "img": "https://jiroyiu.github.io/img/foodicon.png",
    "mapPin": "foodPin"
  },
  {
    "id": "e16",
    "nameEng": "GINZA 300BAR 8CHOME",
    "addressEng": "8-3-12 Ginza | Ginza Kaga Bldg B1F, Chuo 104-0061, Tokyo Prefecture",
    "nameChi": "GINZA 300BAR 8CHOME",
    "addressChi": "東京都中央區8-3-12 GinzaGinza Kaga Bldg B1F 104-0061",
    "phone": "+81 3-3571-8300",
    "lat": 35.669117,
    "long": 139.759094,
    "cities": 40,
    "country": 84,
    "stayTime": 1,
    "img": "https://jiroyiu.github.io/img/foodicon.png",
    "mapPin": "foodPin"
  },
  {
    "id": "e17",
    "nameEng": "Ginza Fukuyoshi",
    "addressEng": "3-12-19 Ginza, Chuo 104-0061, Tokyo Prefecture",
    "nameChi": "Ginza Fukuyoshi 銀座ふくよし",
    "addressChi": "東京都中央區3-12-19 Ginza 104-0061",
    "phone": "+81 3-6228-4004",
    "lat": 35.670967,
    "long": 139.76915,
    "cities": 40,
    "country": 84,
    "stayTime": 1,
    "img": "https://jiroyiu.github.io/img/foodicon.png",
    "mapPin": "foodPin"
  },
  {
    "id": "e18",
    "nameEng": "Ginza Maru",
    "addressEng": "6-12-15 Ginza | 2f, Ginza, Chuo 104-0061, Tokyo Prefecture",
    "nameChi": "Ginza Maru",
    "addressChi": "東京都中央區Ginza6-12-15 Ginza2f 104-0061",
    "phone": "+81 3-5537-7420",
    "lat": 35.669312,
    "long": 139.764511,
    "cities": 40,
    "country": 84,
    "stayTime": 1,
    "img": "https://jiroyiu.github.io/img/foodicon.png",
    "mapPin": "foodPin"
  },
  {
    "id": "e19",
    "nameEng": "Sushiogawa",
    "addressEng": "3-14-18 Ginza Chuo Tokyo",
    "nameChi": "Sushiogawa すし小川",
    "addressChi": "東京都中央区銀座 3-14-18 小野寺ビル B1F",
    "phone": "+81 3-3545-2631",
    "lat": 35.670387,
    "long": 139.769608,
    "cities": 40,
    "country": 84,
    "stayTime": 1,
    "img": "https://jiroyiu.github.io/img/foodicon.png",
    "mapPin": "foodPin"
  },
  {
    "id": "e20",
    "nameEng": "Gohandokoro Yayoiken Shinjuku Meijidori",
    "addressEng": "2-2-20 Kabukicho, Shinjuku, Tokyo Prefecture",
    "nameChi": "Gohandokoro Yayoiken やよい軒 新宿明治通り店",
    "addressChi": "東京都新宿區歌舞伎町2-2-20",
    "phone": "+81 3-5291-5597",
    "lat": 35.695702,
    "long": 139.706741,
    "cities": 40,
    "country": 84,
    "stayTime": 1,
    "img": "https://jiroyiu.github.io/img/foodicon.png",
    "mapPin": "foodPin"
  },
  {
    "id": "e21",
    "nameEng": "Gohandokoro Yayoiken Shinjukugyoen",
    "addressEng": "Kindai Group BLD.15, 1-34-8-1F Shinjuku, Shinjuku-ku, Tokyo Prefecture",
    "nameChi": "Gohandokoro Yayoiken Shinjukugyoen やよい軒 新宿御苑店",
    "addressChi": "東京都新宿区新宿1-34-8日高第一ビル１Ｆ",
    "phone": "+81 3-5367-8737",
    "lat": 35.691097,
    "long": 139.710144,
    "cities": 40,
    "country": 84,
    "stayTime": 1,
    "img": "https://jiroyiu.github.io/img/foodicon.png",
    "mapPin": "foodPin"
  },
  {
    "id": "e22",
    "nameEng": "Goryukubo",
    "addressEng": "2-15-1 Nishiazabu | B1 Misawa, Minato 106-0031, Tokyo Prefecture",
    "nameChi": "豪龍久保",
    "addressChi": "東京都港區西麻布 2-15-1 三澤ビル Ｂ1Ｆ",
    "phone": "+81 3-6427-6727",
    "lat": 35.661636,
    "long": 139.720932,
    "cities": 40,
    "country": 84,
    "stayTime": 1,
    "img": "https://jiroyiu.github.io/img/foodicon.png",
    "mapPin": "foodPin"
  },
  {
    "id": "e23",
    "nameEng": "Hachidaime Gihe Ginza",
    "addressEng": "5-4-15 Ginza | Efflore Ginza 1F, Chuo 104-0061, Tokyo Prefecture",
    "nameChi": "八代目儀兵衛",
    "addressChi": "東京都中央區銀座 5-4-15 エフローレ銀座 1F",
    "phone": "+81 3-6280-6383",
    "lat": 35.671757,
    "long": 139.762955,
    "cities": 40,
    "country": 84,
    "stayTime": 1,
    "img": "https://jiroyiu.github.io/img/foodicon.png",
    "mapPin": "foodPin"
  },
  {
    "id": "e24",
    "nameEng": "Hakata Biyori",
    "addressEng": "2-6-11 Yutenji, Meguro 153-0052, Tokyo Prefecture",
    "nameChi": "博多日和",
    "addressChi": "東京都目黒区祐天寺2-6-11",
    "phone": "+81 3-6303-2270",
    "lat": 35.636822,
    "long": 139.693832,
    "cities": 40,
    "country": 84,
    "stayTime": 1,
    "img": "https://jiroyiu.github.io/img/foodicon.png",
    "mapPin": "foodPin"
  },
  {
    "id": "e25",
    "nameEng": "Hakataya Daikichi Ginza",
    "addressEng": "6-2 Ginza | Corridor Town Ginza Hanare B1, Chuo 104-0061, Tokyo Prefecture",
    "nameChi": "博多屋大吉 銀座店",
    "addressChi": "東京都中央区銀座6-2番先 コリドー街ＧＩＮZAはなれＢ1F",
    "phone": "+81 3-6274-5533",
    "lat": 35.671852,
    "long": 139.760376,
    "cities": 40,
    "country": 84,
    "stayTime": 1,
    "img": "https://jiroyiu.github.io/img/foodicon.png",
    "mapPin": "foodPin"
  },
  {
    "id": "e26",
    "nameEng": "HAN NO DAIDOKORO",
    "addressEng": "2-29-8 Dogenzaka Shibuya Tokyo",
    "nameChi": "韓の台所 別邸",
    "addressChi": "東京都東京都涉谷區道玄坂2-29-8",
    "phone": "+81 3-5489-7655",
    "lat": 35.659268,
    "long": 139.697882,
    "cities": 40,
    "country": 84,
    "stayTime": 1,
    "img": "https://jiroyiu.github.io/img/foodicon.png",
    "mapPin": "foodPin"
  },
  {
    "id": "e27",
    "nameEng": "Hitashiro",
    "addressEng": "1-5-3 Sarugakucho | 1f, Chiyoda 101-0064, Tokyo Prefecture",
    "nameChi": "Hitashiro",
    "addressChi": "東京都千代田區1-5-3 Sarugakucho1f 101-0064",
    "phone": "+81 3-3219-4722",
    "lat": 35.697819,
    "long": 139.759903,
    "cities": 40,
    "country": 84,
    "stayTime": 1,
    "img": "https://jiroyiu.github.io/img/foodicon.png",
    "mapPin": "foodPin"
  },
  {
    "id": "e28",
    "nameEng": "Ichiban",
    "addressEng": "4-10 Minami Shinozakimachi, Edogawa 133-0065, Tokyo Prefecture",
    "nameChi": "一番",
    "addressChi": "東京都江戶川區4-10 Minami Shinozakimachi 133-0065",
    "phone": "+81 3-3676-6316",
    "lat": 35.698677,
    "long": 139.899109,
    "cities": 40,
    "country": 84,
    "stayTime": 1,
    "img": "https://jiroyiu.github.io/img/foodicon.png",
    "mapPin": "foodPin"
  },
  {
    "id": "e29",
    "nameEng": "Ikkyu",
    "addressEng": "2-18-6 Dogenzaka, Shibuya 150-0043, Tokyo Prefecture",
    "nameChi": "一休",
    "addressChi": "東京都涉谷區2-18-6 Dogenzaka 150-0043",
    "phone": "+81 3-3461-2238",
    "lat": 35.658863,
    "long": 139.695908,
    "cities": 40,
    "country": 84,
    "stayTime": 1,
    "img": "https://jiroyiu.github.io/img/foodicon.png",
    "mapPin": "foodPin"
  },
  {
    "id": "e30",
    "nameEng": "Ginzaiwa",
    "addressEng": "8-4-4 Ginza | 1f, Chuo 104-0061, Tokyo Prefecture",
    "nameChi": "銀座いわ Ginza IWA",
    "addressChi": "東京都 中央区 銀座 8-4-4 三浦ビル 1F・B1F",
    "phone": "+81 3-3572-0955",
    "lat": 35.669346,
    "long": 139.760437,
    "cities": 40,
    "country": 84,
    "stayTime": 1,
    "img": "https://jiroyiu.github.io/img/foodicon.png",
    "mapPin": "foodPin"
  },
  {
    "id": "e31",
    "nameEng": "Joumon（六本木店）",
    "addressEng": "5-9-17 Roppongi | Fujimori Bldg. 1F, Roppongi, Minato 106-0032, Tokyo Prefecture",
    "nameChi": "Joumon（六本木店）",
    "addressChi": "東京都港區六本木 5丁目9-17 藤森ビル 1F",
    "phone": "+81 3-3405-2585",
    "lat": 35.661343,
    "long": 139.732819,
    "cities": 40,
    "country": 84,
    "stayTime": 1,
    "img": "https://jiroyiu.github.io/img/foodicon.png",
    "mapPin": "foodPin"
  },
  {
    "id": "e32",
    "nameEng": "Kagawa Ippuku Kanda",
    "addressEng": "1-18-11 Uchikanda | Tokyo Royal Plaza 102, Chiyoda 101-0047, Tokyo Prefecture",
    "nameChi": "香川一福 神田店",
    "addressChi": "東京都千代田区内神田1-18-11 東京ロイヤルプラザ102",
    "phone": "+81 3-5577-3644",
    "lat": 35.691893,
    "long": 139.767298,
    "cities": 40,
    "country": 84,
    "stayTime": 1,
    "img": "https://jiroyiu.github.io/img/foodicon.png",
    "mapPin": "foodPin"
  },
  {
    "id": "e33",
    "nameEng": "Kakekomi Gyoza",
    "addressEng": "1-12-2 Kabukicho | 1-2F 58th Tokyo Bldg., Kabukicho, Shinjuku 160-0021, Tokyo Prefecture",
    "nameChi": "新宿 駆け込み餃子",
    "addressChi": "東京都 新宿区 歌舞伎町 1-12-2 第58東京ビル　1・2F",
    "phone": "+81 3-6233-7099",
    "lat": 35.694771,
    "long": 139.702271,
    "cities": 40,
    "country": 84,
    "stayTime": 1,
    "img": "https://jiroyiu.github.io/img/foodicon.png",
    "mapPin": "foodPin"
  },
  {
    "id": "e34",
    "nameEng": "Kanda",
    "addressEng": "3-6-34 Motoazabu | Calm Motoazabu 1F, Minato 106-0046, Tokyo Prefecture",
    "nameChi": "米其林三星懷石 神田 Kanda",
    "addressChi": "東京都港區3-6-34 MotoazabuCalm Motoazabu 1F 106-0046",
    "phone": "+81 3-5786-0150",
    "lat": 35.657101,
    "long": 139.728714,
    "cities": 40,
    "country": 84,
    "stayTime": 1,
    "img": "https://jiroyiu.github.io/img/foodicon.png",
    "mapPin": "foodPin"
  },
  {
    "id": "e35",
    "nameEng": "Kawai Maid Cafe & Bar Akiba Zettai Ryoiki",
    "addressEng": "3-1-1 Sotokanda | 1F Obayashi Bldg., Chiyoda 101-0021, Tokyo Prefecture",
    "nameChi": "Akiba Zettai Ryoiki アキバ絶対領域",
    "addressChi": "東京都千代田區3-1-1 Sotokanda1F Obayashi Bldg. 101-0021",
    "phone": "+81 50-1180-6584",
    "lat": 35.700021,
    "long": 139.76937,
    "cities": 40,
    "country": 84,
    "stayTime": 1,
    "img": "https://jiroyiu.github.io/img/foodicon.png",
    "mapPin": "foodPin"
  },
  {
    "id": "e36",
    "nameEng": "Keitei, Takashimaya S.C Futago Tamagawa",
    "addressEng": "3-17-1 Tamagawa | Tamagawa Takashimaya S.C South Wing 6F, Setagaya 158-0094, Tokyo Prefecture",
    "nameChi": "恵亭 高島屋ショッピングセンター",
    "addressChi": "東京都世田谷3-17-1 TamagawaTamagawa Takashimaya S.C South Wing 6F 158-0094",
    "phone": "+81 3-5491-5313",
    "lat": 35.61467,
    "long": 139.627167,
    "cities": 40,
    "country": 84,
    "stayTime": 1,
    "img": "https://jiroyiu.github.io/img/foodicon.png",
    "mapPin": "foodPin"
  },
  {
    "id": "e37",
    "nameEng": "Komaki Shokudo, Kamakura Fushikian",
    "addressEng": "8-2 Kanda Neribeicho | CHABARA Komaki Shokudo, Chiyoda 101-0022, Tokyo Prefecture",
    "nameChi": "こまきしょくどう 鎌倉不識庵",
    "addressChi": "東京都千代田區8-2 Kanda NeribeichoCHABARA Komaki Shokudo 101-0022",
    "phone": "+81 3-5577-5358",
    "lat": 35.699459,
    "long": 139.77301,
    "cities": 40,
    "country": 84,
    "stayTime": 1,
    "img": "https://jiroyiu.github.io/img/foodicon.png",
    "mapPin": "foodPin"
  },
  {
    "id": "e38",
    "nameEng": "Doutomborikukuru",
    "addressEng": "3-36-1 Asagayaminami Suginami Tokyo",
    "nameChi": "道頓堀くくる ディラ阿佐ヶ谷店",
    "addressChi": "東京都 杉並区 阿佐谷南 3-36-1 Dila阿佐ヶ谷 1F",
    "phone": "+81 3-3310-2519",
    "lat": 35.704739,
    "long": 139.636047,
    "cities": 40,
    "country": 84,
    "stayTime": 1,
    "img": "https://jiroyiu.github.io/img/foodicon.png",
    "mapPin": "foodPin"
  },
  {
    "id": "e39",
    "nameEng": "Kuriya",
    "addressEng": "1-15-8 Kabukicho | Maruo Bldg. B1, Kabukicho, Shinjuku 160-0021, Tokyo Prefecture",
    "nameChi": "庖 Kuriya",
    "addressChi": "東京都新宿區Kabukicho1-15-8 KabukichoMaruo Bldg. B1 160-0021",
    "phone": "+81 3-3209-7423",
    "lat": 35.69437,
    "long": 139.702042,
    "cities": 40,
    "country": 84,
    "stayTime": 1,
    "img": "https://jiroyiu.github.io/img/foodicon.png",
    "mapPin": "foodPin"
  },
  {
    "id": "e40",
    "nameEng": "Kushiyaki Bistro Fukumimi Shibuya",
    "addressEng": "2-25-17 Dogenzaka | Kojima Bldg. B1F, Shibuya 150-0043, Tokyo Prefecture",
    "nameChi": "Kushiyaki Bistro Fukumimi Shibuya",
    "addressChi": "東京都涉谷區2-25-17 DogenzakaKojima Bldg. B1F 150-0043",
    "phone": "+81 3-3461-2911",
    "lat": 35.659695,
    "long": 139.697754,
    "cities": 40,
    "country": 84,
    "stayTime": 1,
    "img": "https://jiroyiu.github.io/img/foodicon.png",
    "mapPin": "foodPin"
  },
  {
    "id": "e41",
    "nameEng": "Kyoto Tsuruya, The Peninsula Tokyo",
    "addressEng": "1-8-1 Yurakucho, Chiyoda 100-0006, Tokyo Prefecture",
    "nameChi": "Kyoto Tsuruya, The Peninsula Tokyo",
    "addressChi": "東京都千代田區1-8-1 Yurakucho 100-0006",
    "phone": "+81 3-6270-2715",
    "lat": 35.674706,
    "long": 139.760666,
    "cities": 40,
    "country": 84,
    "stayTime": 1,
    "img": "https://jiroyiu.github.io/img/foodicon.png",
    "mapPin": "foodPin"
  },
  {
    "id": "e42",
    "nameEng": "Kyushu Cuisine Nan",
    "addressEng": "3-19-12 Akasaka | Tosho Bldg. 2F, Minato 107-0052, Tokyo Prefecture",
    "nameChi": "Kyushu Cuisine Nan",
    "addressChi": "東京都港區3-19-12 AkasakaTosho Bldg. 2F 107-0052",
    "phone": "+81 3-6459-1266",
    "lat": 35.676041,
    "long": 139.736145,
    "cities": 40,
    "country": 84,
    "stayTime": 1,
    "img": "https://jiroyiu.github.io/img/foodicon.png",
    "mapPin": "foodPin"
  },
  {
    "id": "e43",
    "nameEng": "Le Chateau de Joel Robuchon",
    "addressEng": "1-13-1 Mita, Meguro 153-0062, Tokyo Prefecture",
    "nameChi": "Le Chateau de Joel Robuchon",
    "addressChi": "東京都目黑區1-13-1 Mita 153-0062",
    "phone": "+81 3-5424-1347",
    "lat": 35.641991,
    "long": 139.714386,
    "cities": 40,
    "country": 84,
    "stayTime": 1,
    "img": "https://jiroyiu.github.io/img/foodicon.png",
    "mapPin": "foodPin"
  },
  {
    "id": "e44",
    "nameEng": "Matsukawa",
    "addressEng": "1-11-6 Akasaka | 1F Akasaka Terrace House, Minato 107-0052, Tokyo Prefecture",
    "nameChi": "Matsukawa",
    "addressChi": "東京都港區1-11-6 Akasaka1F Akasaka Terrace House 107-0052",
    "phone": "+81 3-6277-7371",
    "lat": 35.667461,
    "long": 139.742325,
    "cities": 40,
    "country": 84,
    "stayTime": 1,
    "img": "https://jiroyiu.github.io/img/foodicon.png",
    "mapPin": "foodPin"
  },
  {
    "id": "e45",
    "nameEng": "Matsuya Honten",
    "addressEng": "1-13 Kandasudacho, Chiyoda 101-0041, Tokyo Prefecture",
    "nameChi": "Matsuya（本店）",
    "addressChi": "東京都千代田區1-13 Kandasudacho 101-0041",
    "phone": "+81 3-3251-1556",
    "lat": 35.695881,
    "long": 139.768829,
    "cities": 40,
    "country": 84,
    "stayTime": 1,
    "img": "https://jiroyiu.github.io/img/foodicon.png",
    "mapPin": "foodPin"
  },
  {
    "id": "e46",
    "nameEng": "Mon cher ton ton Shinjuku",
    "addressEng": "2-6 Nishishinjuku | Shinjuku Sumitomo Bldg 52F, 163-0252, Tokyo Prefecture",
    "nameChi": "Mon cher ton ton Shinjuku",
    "addressChi": "東京都2-6 NishishinjukuShinjuku Sumitomo Bldg 52F 163-0252",
    "phone": "+81 3-3344-6761",
    "lat": 35.782806,
    "long": 139.734589,
    "cities": 40,
    "country": 84,
    "stayTime": 1,
    "img": "https://jiroyiu.github.io/img/foodicon.png",
    "mapPin": "foodPin"
  },
  {
    "id": "e47",
    "nameEng": "Monjaya Shinjuku Tonanguchi",
    "addressEng": "3-36-2 Shinjuku, Shinjuku 160-0022, Tokyo Prefecture",
    "nameChi": "Monjaya Shinjuku Tonanguchi",
    "addressChi": "東京都新宿區3-36-2 Shinjuku 160-0022",
    "phone": "+81 3-5269-6277",
    "lat": 35.689888,
    "long": 139.701996,
    "cities": 40,
    "country": 84,
    "stayTime": 1,
    "img": "https://jiroyiu.github.io/img/foodicon.png",
    "mapPin": "foodPin"
  },
  {
    "id": "e48",
    "nameEng": "Mutsumi",
    "addressEng": "2-1-1 Yurakucho | International Archade, Chiyoda 100-0006, Tokyo Prefecture",
    "nameChi": "Mutsumi",
    "addressChi": "東京都千代田區2-1-1 YurakuchoInternational Archade 100-0006",
    "phone": "+81 3-3597-7881",
    "lat": 35.672535,
    "long": 139.760635,
    "cities": 40,
    "country": 84,
    "stayTime": 1,
    "img": "https://jiroyiu.github.io/img/foodicon.png",
    "mapPin": "foodPin"
  },
  {
    "id": "e49",
    "nameEng": "Nabezo, Shinjuku East Entrance",
    "addressEng": "3-28-10 Shinjuku | Humax Pavilion Shinjuku Higashi Exit 3F, Shinjuku 160-0022, Tokyo Prefecture",
    "nameChi": "Nabezo, Shinjuku East Entrance",
    "addressChi": "東京都新宿區3-28-10 ShinjukuHumax Pavilion Shinjuku Higashi Exit 3F 160-0022",
    "phone": "+81 3-3356-4129",
    "lat": 35.691044,
    "long": 139.702637,
    "cities": 40,
    "country": 84,
    "stayTime": 1,
    "img": "https://jiroyiu.github.io/img/foodicon.png",
    "mapPin": "foodPin"
  },
  {
    "id": "e50",
    "nameEng": "Nakameguro Iguchi Pin",
    "addressEng": "1-1-5 Ebisu | Ebisu Oak Bldg.2F, Shibuya 150-0013, Tokyo Prefecture",
    "nameChi": "Nakameguro Iguchi Pin",
    "addressChi": "東京都涉谷區1-1-5 EbisuEbisu Oak Bldg.2F 150-0013",
    "phone": "+81 3-6432-5950",
    "lat": 35.648312,
    "long": 139.711121,
    "cities": 40,
    "country": 84,
    "stayTime": 1,
    "img": "https://jiroyiu.github.io/img/foodicon.png",
    "mapPin": "foodPin"
  },
  {
    "id": "e51",
    "nameEng": "Nangoku Dining",
    "addressEng": "23-3 Udagawacho | 6F DKB Bldg. Gourmet Town, Shibuya 150-0042, Tokyo Prefecture",
    "nameChi": "Nangoku Dining",
    "addressChi": "東京都涉谷區23-3 Udagawacho6F DKB Bldg. Gourmet Town 150-0042",
    "phone": "+81 3-6416-0778",
    "lat": 35.65984,
    "long": 139.699615,
    "cities": 40,
    "country": 84,
    "stayTime": 1,
    "img": "https://jiroyiu.github.io/img/foodicon.png",
    "mapPin": "foodPin"
  },
  {
    "id": "e52",
    "nameEng": "NARISAWA",
    "addressEng": "2-6-15 Minami Aoyama, Minato 107-0062, Tokyo Prefecture",
    "nameChi": "NARISAWA",
    "addressChi": "東京都港區2-6-15 Minami Aoyama 107-0062",
    "phone": "+81 3-5785-0799",
    "lat": 35.67157,
    "long": 139.722198,
    "cities": 40,
    "country": 84,
    "stayTime": 1,
    "img": "https://jiroyiu.github.io/img/foodicon.png",
    "mapPin": "foodPin"
  },
  {
    "id": "e53",
    "nameEng": "Ochi Kochi",
    "addressEng": "1-6-10 Ginza | B1f, Chuo 104-0061, Tokyo Prefecture",
    "nameChi": "Ochi Kochi",
    "addressChi": "東京都中央區1-6-10 GinzaB1f 104-0061",
    "phone": "+81 3-5579-9812",
    "lat": 35.674168,
    "long": 139.767242,
    "cities": 40,
    "country": 84,
    "stayTime": 1,
    "img": "https://jiroyiu.github.io/img/foodicon.png",
    "mapPin": "foodPin"
  },
  {
    "id": "e54",
    "nameEng": "Oedo Ayatori",
    "addressEng": "1-18-9 Kabukicho | 6F WaMall Kabukicho, Shinjuku 160-0021, Tokyo Prefecture",
    "nameChi": "Oedo Ayatori",
    "addressChi": "東京都新宿區1-18-9 Kabukicho6F WaMall Kabukicho 160-0021",
    "phone": "+81 50-5272-1052",
    "lat": 35.694595,
    "long": 139.701706,
    "cities": 40,
    "country": 84,
    "stayTime": 1,
    "img": "https://jiroyiu.github.io/img/foodicon.png",
    "mapPin": "foodPin"
  },
  {
    "id": "e55",
    "nameEng": "Okinawa Ryori 58",
    "addressEng": "2-25-6 Dogenzaka | B1 Horiuchi Building, Shibuya 150-0043, Tokyo Prefecture",
    "nameChi": "Okinawa Ryori 58",
    "addressChi": "東京都涉谷區2-25-6 DogenzakaB1 Horiuchi Building 150-0043",
    "phone": "+81 3-5456-9858",
    "lat": 35.660255,
    "long": 139.696609,
    "cities": 40,
    "country": 84,
    "stayTime": 1,
    "img": "https://jiroyiu.github.io/img/foodicon.png",
    "mapPin": "foodPin"
  },
  {
    "id": "e56",
    "nameEng": "Okonomiyaki Dio",
    "addressEng": "1-26-7 Kamijujo, Kita, Tokyo Prefecture",
    "nameChi": "Okonomiyaki Dio",
    "addressChi": "東京都北區1-26-7 Kamijujo",
    "phone": "+81 3-5993-1537",
    "lat": 35.759026,
    "long": 139.724564,
    "cities": 40,
    "country": 84,
    "stayTime": 1,
    "img": "https://jiroyiu.github.io/img/foodicon.png",
    "mapPin": "foodPin"
  },
  {
    "id": "e57",
    "nameEng": "Okonomiyaki Hyakka",
    "addressEng": "3-34-15 Shinjuku, Shinjuku 160-0022, Tokyo Prefecture",
    "nameChi": "Okonomiyaki Hyakka",
    "addressChi": "東京都新宿區3-34-15 Shinjuku 160-0022",
    "phone": "+81 3-3354-2175",
    "lat": 35.690479,
    "long": 139.703156,
    "cities": 40,
    "country": 84,
    "stayTime": 1,
    "img": "https://jiroyiu.github.io/img/foodicon.png",
    "mapPin": "foodPin"
  },
  {
    "id": "e58",
    "nameEng": "Rakushokushu Maru",
    "addressEng": "5-50-8 Jingumae | B1 aAoyama KT Building, Shibuya 150-0001, Tokyo Prefecture",
    "nameChi": "Rakushokushu Maru",
    "addressChi": "東京都涉谷區5-50-8 JingumaeB1 aAoyama KT Building 150-0001",
    "phone": "+81 3-6418-5572",
    "lat": 35.663033,
    "long": 139.709625,
    "cities": 40,
    "country": 84,
    "stayTime": 1,
    "img": "https://jiroyiu.github.io/img/foodicon.png",
    "mapPin": "foodPin"
  },
  {
    "id": "e59",
    "nameEng": "Rikyu Lumine EST Shinjuku",
    "addressEng": "Lumine EST Shinjuku 7F, 3-38-1 Shinjuku, Shinjuku, Tokyo Prefecture",
    "nameChi": "Rikyu Lumine EST Shinjuku",
    "addressChi": "東京都新宿區Lumine EST Shinjuku 7F, 3-38-1 Shinjuku",
    "phone": "+81 3-5312-6211",
    "lat": 35.691021,
    "long": 139.701065,
    "cities": 40,
    "country": 84,
    "stayTime": 1,
    "img": "https://jiroyiu.github.io/img/foodicon.png",
    "mapPin": "foodPin"
  },
  {
    "id": "e60",
    "nameEng": "Ristorante Cascina Canamilla",
    "addressEng": "1-23-3 Aobadai | Aobadai Towa Bldg. 2F, Meguro 153-0042, Tokyo Prefecture",
    "nameChi": "Ristorante Cascina Canamilla",
    "addressChi": "東京都目黑區1-23-3 AobadaiAobadai Towa Bldg. 2F 153-0042",
    "phone": "+81 3-3715-4040",
    "lat": 35.646778,
    "long": 139.697098,
    "cities": 40,
    "country": 84,
    "stayTime": 1,
    "img": "https://jiroyiu.github.io/img/foodicon.png",
    "mapPin": "foodPin"
  },
  {
    "id": "e61",
    "nameEng": "Rokumonya",
    "addressEng": "3-35-13 Shinjuku Shinjuku Tokyo",
    "nameChi": "Rokumonya",
    "addressChi": "東京都新宿區新宿 3-35-13",
    "phone": "+81 3-3356-6824",
    "lat": 35.690105,
    "long": 139.70282,
    "cities": 40,
    "country": 84,
    "stayTime": 1,
    "img": "https://jiroyiu.github.io/img/foodicon.png",
    "mapPin": "foodPin"
  },
  {
    "id": "e62",
    "nameEng": "Roppongi Fukuzushi",
    "addressEng": "5-7-8 Roppongi, Minato 106-0032, Tokyo Prefecture",
    "nameChi": "六本木 福鮨",
    "addressChi": "東京都港區5-7-8 Roppongi 106-0032",
    "phone": "+81 3-3402-4116",
    "lat": 35.661419,
    "long": 139.734177,
    "cities": 40,
    "country": 84,
    "stayTime": 1,
    "img": "https://jiroyiu.github.io/img/foodicon.png",
    "mapPin": "foodPin"
  },
  {
    "id": "e63",
    "nameEng": "Sakuratei",
    "addressEng": "3-20-1 Jingumae, Shibuya 150-0001, Tokyo Prefecture",
    "nameChi": "大阪燒 櫻亭",
    "addressChi": "東京都涉穀區神宮前 3-20-1",
    "phone": "+81 3-3479-0039",
    "lat": 35.670616,
    "long": 139.708359,
    "cities": 40,
    "country": 84,
    "stayTime": 1,
    "img": "https://jiroyiu.github.io/img/foodicon.png",
    "mapPin": "foodPin"
  },
  {
    "id": "e64",
    "nameEng": "Sangoku Ichi Higashiguchi",
    "addressEng": "3-24-8 Shinjuku, Shinjuku, Tokyo Prefecture",
    "nameChi": "Sangoku Ichi Higashiguchi",
    "addressChi": "東京都新宿區3-24-8 Shinjuku",
    "phone": "+81 3-3354-3591",
    "lat": 35.692936,
    "long": 139.701202,
    "cities": 40,
    "country": 84,
    "stayTime": 1,
    "img": "https://jiroyiu.github.io/img/foodicon.png",
    "mapPin": "foodPin"
  },
  {
    "id": "e65",
    "nameEng": "Sansada",
    "addressEng": "1-2-2 Asakusa, Taito 111-0032, Tokyo Prefecture",
    "nameChi": "Sansada",
    "addressChi": "東京都台東區1-2-2 Asakusa 111-0032",
    "phone": "+81 3-3841-3200",
    "lat": 35.710857,
    "long": 139.79657,
    "cities": 40,
    "country": 84,
    "stayTime": 1,
    "img": "https://jiroyiu.github.io/img/foodicon.png",
    "mapPin": "foodPin"
  },
  {
    "id": "e66",
    "nameEng": "Sashimi Bar Kashigashira",
    "addressEng": "4-12-2 Tsukiji | Lionsapartment Higashiginza B1F, Chuo, Tokyo Prefecture",
    "nameChi": "Sashimi Bar Kashigashira",
    "addressChi": "東京都中央區4-12-2 TsukijiLionsapartment Higashiginza B1F",
    "phone": "+81 3-6383-4597",
    "lat": 35.665764,
    "long": 139.771133,
    "cities": 40,
    "country": 84,
    "stayTime": 1,
    "img": "https://jiroyiu.github.io/img/foodicon.png",
    "mapPin": "foodPin"
  },
  {
    "id": "e67",
    "nameEng": "Ginza Seamon",
    "addressEng": "5-5-13 Ginza | Sakaguchi Bldg. 6F, Chuo 104-0061, Tokyo Prefecture",
    "nameChi": "Seamon寿司",
    "addressChi": "東京都中央區5-5-13 GinzaSakaguchi Bldg. 6F 104-0061",
    "phone": "+81 3-5537-0010",
    "lat": 35.671219,
    "long": 139.763153,
    "cities": 40,
    "country": 84,
    "stayTime": 1,
    "img": "https://jiroyiu.github.io/img/foodicon.png",
    "mapPin": "foodPin"
  },
  {
    "id": "e68",
    "nameEng": "Senndaizaka Himuka",
    "addressEng": "3-10-9 Azabu Juban | Million Palace Azabu Sendaizaka, Minato 106-0045, Tokyo Prefecture",
    "nameChi": "Senndaizaka Himuka",
    "addressChi": "東京都港區3-10-9 Azabu JubanMillion Palace Azabu Sendaizaka 106-0045",
    "phone": "+81 3-5443-5198",
    "lat": 35.652657,
    "long": 139.734589,
    "cities": 40,
    "country": 84,
    "stayTime": 1,
    "img": "https://jiroyiu.github.io/img/foodicon.png",
    "mapPin": "foodPin"
  },
  {
    "id": "e69",
    "nameEng": "Shichigosan",
    "addressEng": "2-23-7 Nishiasakusa, Taito 111-0035, Tokyo Prefecture",
    "nameChi": "Shichigosan",
    "addressChi": "東京都台東區2-23-7 Nishiasakusa 111-0035",
    "phone": "+81 3-3847-5753",
    "lat": 35.714325,
    "long": 139.789871,
    "cities": 40,
    "country": 84,
    "stayTime": 1,
    "img": "https://jiroyiu.github.io/img/foodicon.png",
    "mapPin": "foodPin"
  },
  {
    "id": "e70",
    "nameEng": "Shokusai Kadota",
    "addressEng": "1-1-2 Ebisunishi | Shinmitsu Bldg. B1F, Shibuya, Tokyo Prefecture",
    "nameChi": "Shokusai Kadota",
    "addressChi": "東京都涉谷區1-1-2 EbisunishiShinmitsu Bldg. B1F",
    "phone": "+81 3-3780-1080",
    "lat": 35.647892,
    "long": 139.709167,
    "cities": 40,
    "country": 84,
    "stayTime": 1,
    "img": "https://jiroyiu.github.io/img/foodicon.png",
    "mapPin": "foodPin"
  },
  {
    "id": "e71",
    "nameEng": "Sinkaya",
    "addressEng": "2-17-3 Dogenzaka | 2F SG Bldg., Shibuya 150-0043, Tokyo Prefecture",
    "nameChi": "Sinkaya",
    "addressChi": "東京都涉谷區2-17-3 Dogenzaka2F SG Bldg. 150-0043",
    "phone": "+81 3-3461-7230",
    "lat": 35.658741,
    "long": 139.696686,
    "cities": 40,
    "country": 84,
    "stayTime": 1,
    "img": "https://jiroyiu.github.io/img/foodicon.png",
    "mapPin": "foodPin"
  },
  {
    "id": "e72",
    "nameEng": "Sonia",
    "addressEng": "5-15-1 Shinbashi, Shimbashi, Minato 105-0004, Tokyo Prefecture",
    "nameChi": "Sonia",
    "addressChi": "東京都港區Shimbashi5-15-1 Shinbashi 105-0004",
    "phone": "+81 3-3433-5084",
    "lat": 35.662277,
    "long": 139.756027,
    "cities": 40,
    "country": 84,
    "stayTime": 1,
    "img": "https://jiroyiu.github.io/img/foodicon.png",
    "mapPin": "foodPin"
  },
  {
    "id": "e73",
    "nameEng": "Steak House Pound Akihabara",
    "addressEng": "4-6-7 Sotokanda | 102 Kanda Eight Bldg., Chiyoda 101-0021, Tokyo Prefecture",
    "nameChi": "Steak House Pound Akihabara",
    "addressChi": "東京都千代田區4-6-7 Sotokanda102 Kanda Eight Bldg. 101-0021",
    "phone": "+81 3-6206-8229",
    "lat": 35.701939,
    "long": 139.772217,
    "cities": 40,
    "country": 84,
    "stayTime": 1,
    "img": "https://jiroyiu.github.io/img/foodicon.png",
    "mapPin": "foodPin"
  },
  {
    "id": "e74",
    "nameEng": "Sudachi",
    "addressEng": "8-5-15 Ginza | SVAX Ginza Bdg 3F, Ginza, Chuo 104-0061, Tokyo Prefecture",
    "nameChi": "Sudachi",
    "addressChi": "東京都中央區Ginza8-5-15 GinzaSVAX Ginza Bdg 3F 104-0061",
    "phone": "+81 3-5568-3321",
    "lat": 35.66835,
    "long": 139.759537,
    "cities": 40,
    "country": 84,
    "stayTime": 1,
    "img": "https://jiroyiu.github.io/img/foodicon.png",
    "mapPin": "foodPin"
  },
  {
    "id": "e75",
    "nameEng": "Suidobashimentsudan",
    "addressEng": "1-13-2 Hongo, Bunkyo, Tokyo Prefecture",
    "nameChi": "水道橋麺通団",
    "addressChi": "東京都文京區1-13-2 Hongo",
    "phone": "+81 3-3818-8774",
    "lat": 35.704014,
    "long": 139.755768,
    "cities": 40,
    "country": 84,
    "stayTime": 1,
    "img": "https://jiroyiu.github.io/img/foodicon.png",
    "mapPin": "foodPin"
  },
  {
    "id": "e76",
    "nameEng": "T's TanTan（东京站店）",
    "addressEng": "",
    "nameChi": "T's TanTan T's たんたん 東京駅京葉ストリート店",
    "addressChi": "東京都千代田區Marunouchi1-9-1 MarunouchiKeiyo Street",
    "phone": "+81 3-3218-8040",
    "lat": 35.679773,
    "long": 139.766944,
    "cities": 40,
    "country": 84,
    "stayTime": 1,
    "img": "https://jiroyiu.github.io/img/foodicon.png",
    "mapPin": "foodPin"
  },
  {
    "id": "e77",
    "nameEng": "Takoyaki Meishou Uekiya",
    "addressEng": "",
    "nameChi": "Takoyaki Meishou Uekiya",
    "addressChi": "東京都豊島區2-28-7 Kitaotsuka",
    "phone": "+81 3-3949-9368",
    "lat": 35.733143,
    "long": 139.729614,
    "cities": 40,
    "country": 84,
    "stayTime": 1,
    "img": "https://jiroyiu.github.io/img/foodicon.png",
    "mapPin": "foodPin"
  },
  {
    "id": "e78",
    "nameEng": "Tamoiyanse Shinjuku",
    "addressEng": "",
    "nameChi": "Tamoiyanse Shinjuku",
    "addressChi": "東京都新宿區7-10-12 Nishishinjuku",
    "phone": "+81 3-6908-9044",
    "lat": 35.69429,
    "long": 139.698227,
    "cities": 40,
    "country": 84,
    "stayTime": 1,
    "img": "https://jiroyiu.github.io/img/foodicon.png",
    "mapPin": "foodPin"
  },
  {
    "id": "e79",
    "nameEng": "Tanbadani Kakuryu",
    "addressEng": "",
    "nameChi": "Tanbadani Kakuryu",
    "addressChi": "東京都港區3-6-4 Roppongi 106-0032",
    "phone": "+81 3-3505-1869",
    "lat": 35.663338,
    "long": 139.735672,
    "cities": 40,
    "country": 84,
    "stayTime": 1,
    "img": "https://jiroyiu.github.io/img/foodicon.png",
    "mapPin": "foodPin"
  },
  {
    "id": "e80",
    "nameEng": "Tetsugen Ebisu",
    "addressEng": "",
    "nameChi": "Tetsugen Ebisu",
    "addressChi": "東京都涉谷區1-2-8 Ebisuminami1F Amamiya Bldg. 150-0022",
    "phone": "+81 3-5768-5537",
    "lat": 35.645958,
    "long": 139.707779,
    "cities": 40,
    "country": 84,
    "stayTime": 1,
    "img": "https://jiroyiu.github.io/img/foodicon.png",
    "mapPin": "foodPin"
  },
  {
    "id": "e81",
    "nameEng": "Tokitsunada",
    "addressEng": "",
    "nameChi": "Tokitsunada",
    "addressChi": "東京都千代田區1-21 Kanda NishikichoKanda Todoroki Bldg. 1F",
    "phone": "+81 3-6273-7371",
    "lat": 35.690849,
    "long": 139.764175,
    "cities": 40,
    "country": 84,
    "stayTime": 1,
    "img": "https://jiroyiu.github.io/img/foodicon.png",
    "mapPin": "foodPin"
  },
  {
    "id": "e82",
    "nameEng": "Tomo Shinjuku",
    "addressEng": "",
    "nameChi": "Tomo Shinjuku",
    "addressChi": "東京都新宿區Kabukicho1-2-151F 160-0021",
    "phone": "+81 3-3207-4288",
    "lat": 35.694817,
    "long": 139.704681,
    "cities": 40,
    "country": 84,
    "stayTime": 1,
    "img": "https://jiroyiu.github.io/img/foodicon.png",
    "mapPin": "foodPin"
  },
  {
    "id": "e83",
    "nameEng": "Tonki炸猪排",
    "addressEng": "",
    "nameChi": "Tonki炸猪排",
    "addressChi": "東京都目黑區1-1-2 Shimomeguro 153-0064",
    "phone": "+81 3-3491-9928",
    "lat": 35.63364,
    "long": 139.714508,
    "cities": 40,
    "country": 84,
    "stayTime": 1,
    "img": "https://jiroyiu.github.io/img/foodicon.png",
    "mapPin": "foodPin"
  },
  {
    "id": "e84",
    "nameEng": "Torakumamogura",
    "addressEng": "",
    "nameChi": "Torakumamogura",
    "addressChi": "東京都港區Azabujuban",
    "phone": "+81 3-5441-2511",
    "lat": 35.653969,
    "long": 139.735184,
    "cities": 40,
    "country": 84,
    "stayTime": 1,
    "img": "https://jiroyiu.github.io/img/foodicon.png",
    "mapPin": "foodPin"
  },
  {
    "id": "e85",
    "nameEng": "TORI&DELI Togoshi Ginza",
    "addressEng": "",
    "nameChi": "TORI&DELI Togoshi Ginza",
    "addressChi": "東京都品川區1-16-8 Togoshi 142-0041",
    "phone": "+81 3-3784-1801",
    "lat": 35.614944,
    "long": 139.71875,
    "cities": 40,
    "country": 84,
    "stayTime": 1,
    "img": "https://jiroyiu.github.io/img/foodicon.png",
    "mapPin": "foodPin"
  },
  {
    "id": "e86",
    "nameEng": "Towers",
    "addressEng": "",
    "nameChi": "Towers",
    "addressChi": "東京都港區9-7-1 AkasakaThe Ritz-Carlton, Tokyo 45F 107-6245",
    "phone": "+81 3-6434-8711",
    "lat": 35.666088,
    "long": 139.731583,
    "cities": 40,
    "country": 84,
    "stayTime": 1,
    "img": "https://jiroyiu.github.io/img/foodicon.png",
    "mapPin": "foodPin"
  },
  {
    "id": "e87",
    "nameEng": "Toyama Hamasaku",
    "addressEng": "",
    "nameChi": "Toyama Hamasaku",
    "addressChi": "東京都中央區1-2-6 Nihonbashi Muromachi1F Nihombashi Daiei Bldg. 103-0022",
    "phone": "+81 3-3516-3011",
    "lat": 35.684647,
    "long": 139.774277,
    "cities": 40,
    "country": 84,
    "stayTime": 1,
    "img": "https://jiroyiu.github.io/img/foodicon.png",
    "mapPin": "foodPin"
  },
  {
    "id": "e88",
    "nameEng": "Tsukiji Gindako Harajuku Branch",
    "addressEng": "",
    "nameChi": "Tsukiji Gindako Harajuku Branch",
    "addressChi": "東京都涉谷區1-14-24 Jingumae5 Toshikazu Building frist floor/second floor 150-0001",
    "phone": "+81 3-5775-1788",
    "lat": 35.669693,
    "long": 139.703262,
    "cities": 40,
    "country": 84,
    "stayTime": 1,
    "img": "https://jiroyiu.github.io/img/foodicon.png",
    "mapPin": "foodPin"
  },
  {
    "id": "e89",
    "nameEng": "Tsukiji Itadori Uogashi Senryo",
    "addressEng": "",
    "nameChi": "Tsukiji Itadori Uogashi Senryo",
    "addressChi": "東京都中央區4-10-14 Tsukiji 104-0045",
    "phone": "+81 3-5565-5739",
    "lat": 35.66547,
    "long": 139.769928,
    "cities": 40,
    "country": 84,
    "stayTime": 1,
    "img": "https://jiroyiu.github.io/img/foodicon.png",
    "mapPin": "foodPin"
  },
  {
    "id": "e90",
    "nameEng": "Tsukishima Komachi",
    "addressEng": "",
    "nameChi": "Tsukishima Komachi",
    "addressChi": "東京都中央區Tsukishima3-20-4 Tsukishima 104-0052",
    "phone": "+81 3-3531-1239",
    "lat": 35.662445,
    "long": 139.779755,
    "cities": 40,
    "country": 84,
    "stayTime": 1,
    "img": "https://jiroyiu.github.io/img/foodicon.png",
    "mapPin": "foodPin"
  },
  {
    "id": "e91",
    "nameEng": "Tsukui",
    "addressEng": "",
    "nameChi": "Tsukui",
    "addressChi": "東京都世田谷3-13-2 Taishido",
    "phone": "+81 3-3410-6586",
    "lat": 35.648056,
    "long": 139.669281,
    "cities": 40,
    "country": 84,
    "stayTime": 1,
    "img": "https://jiroyiu.github.io/img/foodicon.png",
    "mapPin": "foodPin"
  },
  {
    "id": "e92",
    "nameEng": "Tsurutontan（六本木店）",
    "addressEng": "",
    "nameChi": "Tsurutontan（六本木店）",
    "addressChi": "東京都港區3-14-12 RoppongiRoppongi 3 Chome Bldg. 106-0032",
    "phone": "+81 3-5786-2626",
    "lat": 35.662289,
    "long": 139.734238,
    "cities": 40,
    "country": 84,
    "stayTime": 1,
    "img": "https://jiroyiu.github.io/img/foodicon.png",
    "mapPin": "foodPin"
  },
  {
    "id": "e93",
    "nameEng": "Ukaitei铁板烧",
    "addressEng": "",
    "nameChi": "Ukaitei铁板烧",
    "addressChi": "東京都中央區5-15-8 Ginza1F Jiji Press Bldg. 104-0061",
    "phone": "+81 3-3544-5252",
    "lat": 35.667828,
    "long": 139.767365,
    "cities": 40,
    "country": 84,
    "stayTime": 1,
    "img": "https://jiroyiu.github.io/img/foodicon.png",
    "mapPin": "foodPin"
  },
  {
    "id": "e94",
    "nameEng": "Wabisuke",
    "addressEng": "",
    "nameChi": "Wabisuke",
    "addressChi": "東京都大田區1-35-3 Omorikita",
    "phone": "+81 3-3763-8294",
    "lat": 35.58651,
    "long": 139.727005,
    "cities": 40,
    "country": 84,
    "stayTime": 1,
    "img": "https://jiroyiu.github.io/img/foodicon.png",
    "mapPin": "foodPin"
  },
  {
    "id": "e95",
    "nameEng": "Wadakura",
    "addressEng": "",
    "nameChi": "Wadakura",
    "addressChi": "東京都千代田區1-1-1 MarunochiPalace Hotel Tokyo | 6 Floor 100-0005",
    "phone": "+81 3-3211-5322",
    "lat": 35.683392,
    "long": 139.761963,
    "cities": 40,
    "country": 84,
    "stayTime": 1,
    "img": "https://jiroyiu.github.io/img/foodicon.png",
    "mapPin": "foodPin"
  },
  {
    "id": "e96",
    "nameEng": "Wakyo",
    "addressEng": "",
    "nameChi": "Wakyo",
    "addressChi": "東京都大田區4-13-10 Nishikojiya 144-0034",
    "phone": "+81 3-6423-2216",
    "lat": 35.55547,
    "long": 139.729813,
    "cities": 40,
    "country": 84,
    "stayTime": 1,
    "img": "https://jiroyiu.github.io/img/foodicon.png",
    "mapPin": "foodPin"
  },
  {
    "id": "e97",
    "nameEng": "Waraso",
    "addressEng": "",
    "nameChi": "Waraso",
    "addressChi": "東京都港區5-1-1 Minamiazabu1F PLAZA KAY Bldg. 106-0047",
    "phone": "+81 3-3445-0550",
    "lat": 35.655895,
    "long": 139.722992,
    "cities": 40,
    "country": 84,
    "stayTime": 1,
    "img": "https://jiroyiu.github.io/img/foodicon.png",
    "mapPin": "foodPin"
  },
  {
    "id": "e98",
    "nameEng": "Warayaki屋（六本木店）",
    "addressEng": "",
    "nameChi": "Warayaki屋（六本木店）",
    "addressChi": "東京都港區6-8-8 RoppongiRoppongi Go Dee Bldg. 1F 106-0032",
    "phone": "+81 3-5410-5560",
    "lat": 35.661549,
    "long": 139.732803,
    "cities": 40,
    "country": 84,
    "stayTime": 1,
    "img": "https://jiroyiu.github.io/img/foodicon.png",
    "mapPin": "foodPin"
  },
  {
    "id": "e99",
    "nameEng": "Yakiniku a Five Toku Ginza8chome",
    "addressEng": "",
    "nameChi": "Yakiniku a Five Toku Ginza8chome",
    "addressChi": "東京都中央區8-3-1 GinzaGinza Tokiden Bldg. 9F 104-0061",
    "phone": "+81 3-6228-5929",
    "lat": 35.669449,
    "long": 139.758987,
    "cities": 40,
    "country": 84,
    "stayTime": 1,
    "img": "https://jiroyiu.github.io/img/foodicon.png",
    "mapPin": "foodPin"
  },
  {
    "id": "e100",
    "nameEng": "Yamatoya Sangen Nihonbashi",
    "addressEng": "",
    "nameChi": "Yamatoya Sangen Nihonbashi",
    "addressChi": "東京都中央區2-4-1 NihombashiNihombashi Takashimaya 8F 103-0027",
    "phone": "+81 3-3246-5009",
    "lat": 35.680752,
    "long": 139.773499,
    "cities": 40,
    "country": 84,
    "stayTime": 1,
    "img": "https://jiroyiu.github.io/img/foodicon.png",
    "mapPin": "foodPin"
  },
  {
    "id": "e101",
    "nameEng": "Yayoiken",
    "addressEng": "",
    "nameChi": "Yayoiken",
    "addressChi": "東京都新宿區Nishishinjuku",
    "phone": "+81 3-5332-3196",
    "lat": 35.694241,
    "long": 139.695023,
    "cities": 40,
    "country": 84,
    "stayTime": 1,
    "img": "https://jiroyiu.github.io/img/foodicon.png",
    "mapPin": "foodPin"
  },
  {
    "id": "e102",
    "nameEng": "Yayoiken Takadanobaba",
    "addressEng": "",
    "nameChi": "Yayoiken Takadanobaba",
    "addressChi": "東京都新宿區3-3-2 Takadanobaba 169-0075",
    "phone": "+81 3-5338-2781",
    "lat": 35.713688,
    "long": 139.702881,
    "cities": 40,
    "country": 84,
    "stayTime": 1,
    "img": "https://jiroyiu.github.io/img/foodicon.png",
    "mapPin": "foodPin"
  },
  {
    "id": "e103",
    "nameEng": "Yoshiba",
    "addressEng": "",
    "nameChi": "Yoshiba",
    "addressChi": "東京都中央區3-7-9 Nihombashi 103-0027",
    "phone": "+81 3-3271-7383",
    "lat": 35.679745,
    "long": 139.773544,
    "cities": 40,
    "country": 84,
    "stayTime": 1,
    "img": "https://jiroyiu.github.io/img/foodicon.png",
    "mapPin": "foodPin"
  },
  {
    "id": "e104",
    "nameEng": "Yuimaru Shokudo",
    "addressEng": "",
    "nameChi": "Yuimaru Shokudo",
    "addressChi": "東京都涉谷區1-22-7 JingumaeB1 150-0001",
    "phone": "+81 3-6455-4600",
    "lat": 35.672466,
    "long": 139.703552,
    "cities": 40,
    "country": 84,
    "stayTime": 1,
    "img": "https://jiroyiu.github.io/img/foodicon.png",
    "mapPin": "foodPin"
  },
  {
    "id": "e105",
    "nameEng": "Yuntaku",
    "addressEng": "",
    "nameChi": "Yuntaku",
    "addressChi": "東京都港區2-6-15 Minamiaoyama",
    "phone": "+81 3-5411-6790",
    "lat": 35.671532,
    "long": 139.722046,
    "cities": 40,
    "country": 84,
    "stayTime": 1,
    "img": "https://jiroyiu.github.io/img/foodicon.png",
    "mapPin": "foodPin"
  },
  {
    "id": "e106",
    "nameEng": "Zen",
    "addressEng": "",
    "nameChi": "Zen",
    "addressChi": "東京都新宿區5-10-9 ShinjukuHanamasa Bldg. 1F 160-0022",
    "phone": "+81 3-6457-8981",
    "lat": 35.692749,
    "long": 139.708145,
    "cities": 40,
    "country": 84,
    "stayTime": 1,
    "img": "https://jiroyiu.github.io/img/foodicon.png",
    "mapPin": "foodPin"
  },
  {
    "id": "e107",
    "nameEng": "一兰拉面（上野山下口店）",
    "addressEng": "",
    "nameChi": "一兰拉面（上野山下口店）",
    "addressChi": "東京都台東區7-1-1 UenoJR Ueno Station Bldg. 110-0005",
    "phone": "+81 3-5826-5861",
    "lat": 35.712376,
    "long": 139.775024,
    "cities": 40,
    "country": 84,
    "stayTime": 1,
    "img": "https://jiroyiu.github.io/img/foodicon.png",
    "mapPin": "foodPin"
  },
  {
    "id": "e108",
    "nameEng": "一兰拉面（原宿神宮前店）",
    "addressEng": "",
    "nameChi": "一兰拉面（原宿神宮前店）",
    "addressChi": "東京都涉谷區6-5-6 Jingumae",
    "phone": "+81 3-3407-5911",
    "lat": 35.667992,
    "long": 139.705063,
    "cities": 40,
    "country": 84,
    "stayTime": 1,
    "img": "https://jiroyiu.github.io/img/foodicon.png",
    "mapPin": "foodPin"
  },
  {
    "id": "e109",
    "nameEng": "一兰拉面（涩谷店）",
    "addressEng": "",
    "nameChi": "一兰拉面（涩谷店）",
    "addressChi": "東京都涉谷區1-22-7 JinnanIwamoto Bldg. B1F 150-0041",
    "phone": "+81 3-3463-3667",
    "lat": 35.661121,
    "long": 139.700684,
    "cities": 40,
    "country": 84,
    "stayTime": 1,
    "img": "https://jiroyiu.github.io/img/foodicon.png",
    "mapPin": "foodPin"
  },
  {
    "id": "e110",
    "nameEng": "一风堂（六本木店）",
    "addressEng": "",
    "nameChi": "一风堂（六本木店）",
    "addressChi": "東京都港區4-9-11 Roppongi1F No.2 Odagiri Bldg. 106-0032",
    "phone": "+81 3-5775-7561",
    "lat": 35.66378,
    "long": 139.732269,
    "cities": 40,
    "country": 84,
    "stayTime": 1,
    "img": "https://jiroyiu.github.io/img/foodicon.png",
    "mapPin": "foodPin"
  },
  {
    "id": "e111",
    "nameEng": "东京 芝 Ukai豆腐屋",
    "addressEng": "",
    "nameChi": "东京 芝 Ukai豆腐屋",
    "addressChi": "東京都港區4-4-13 Shibakoen 105-0011",
    "phone": "+81 3-3436-1028",
    "lat": 35.657402,
    "long": 139.745255,
    "cities": 40,
    "country": 84,
    "stayTime": 1,
    "img": "https://jiroyiu.github.io/img/foodicon.png",
    "mapPin": "foodPin"
  },
  {
    "id": "e112",
    "nameEng": "东京晴空塔餐厅634（武藏）",
    "addressEng": "",
    "nameChi": "东京晴空塔餐厅634（武藏）",
    "addressChi": "東京都墨田區Oshiage1-1-2 OshiageTokyo Skytree 131-0045",
    "phone": "+81 3-3623-0634",
    "lat": 35.709484,
    "long": 139.810486,
    "cities": 40,
    "country": 84,
    "stayTime": 1,
    "img": "https://jiroyiu.github.io/img/foodicon.png",
    "mapPin": "foodPin"
  },
  {
    "id": "e113",
    "nameEng": "丸五猪排",
    "addressEng": "",
    "nameChi": "丸五猪排",
    "addressChi": "東京都千代田區1-8-14 Sotokanda 101-0021",
    "phone": "+81 3-3255-6595",
    "lat": 35.698883,
    "long": 139.769699,
    "cities": 40,
    "country": 84,
    "stayTime": 1,
    "img": "https://jiroyiu.github.io/img/foodicon.png",
    "mapPin": "foodPin"
  },
  {
    "id": "e114",
    "nameEng": "久兵卫寿司",
    "addressEng": "",
    "nameChi": "久兵卫寿司",
    "addressChi": "東京都中央區7-6, Ginza 8-chome 104-0061",
    "phone": "+81 3-3571-6523",
    "lat": 35.668507,
    "long": 139.761368,
    "cities": 40,
    "country": 84,
    "stayTime": 1,
    "img": "https://jiroyiu.github.io/img/foodicon.png",
    "mapPin": "foodPin"
  },
  {
    "id": "e115",
    "nameEng": "伊势Sueyoshi",
    "addressEng": "",
    "nameChi": "伊势Sueyoshi",
    "addressChi": "東京都港區Nishiazabu4-2-15 Nishiazabu3F Mizuno Bldg. 106-0031",
    "phone": "+81 3-6427-2314",
    "lat": 35.658646,
    "long": 139.723511,
    "cities": 40,
    "country": 84,
    "stayTime": 1,
    "img": "https://jiroyiu.github.io/img/foodicon.png",
    "mapPin": "foodPin"
  },
  {
    "id": "e116",
    "nameEng": "元气寿司（涩谷店）",
    "addressEng": "",
    "nameChi": "元气寿司（涩谷店）",
    "addressChi": "東京都涉谷區24-8 Udagawacho 150-0042",
    "phone": "+81 3-3461-1281",
    "lat": 35.660362,
    "long": 139.699341,
    "cities": 40,
    "country": 84,
    "stayTime": 1,
    "img": "https://jiroyiu.github.io/img/foodicon.png",
    "mapPin": "foodPin"
  },
  {
    "id": "e117",
    "nameEng": "凪拉面（新宿金街本店）",
    "addressEng": "",
    "nameChi": "凪拉面（新宿金街本店）",
    "addressChi": "東京都新宿區1-1-10 Kabukicho2f 160-0021",
    "phone": "+81 3-3205-1925",
    "lat": 35.693817,
    "long": 139.704498,
    "cities": 40,
    "country": 84,
    "stayTime": 1,
    "img": "https://jiroyiu.github.io/img/foodicon.png",
    "mapPin": "foodPin"
  },
  {
    "id": "e118",
    "nameEng": "分子料理酒吧",
    "addressEng": "",
    "nameChi": "分子料理酒吧",
    "addressChi": "東京都中央區2-1-1 Nihonbashi Muromachi38F, Mandarin Oriental Tokyo 103-8328",
    "phone": "+81 3-3270-8188",
    "lat": 35.686859,
    "long": 139.772949,
    "cities": 40,
    "country": 84,
    "stayTime": 1,
    "img": "https://jiroyiu.github.io/img/foodicon.png",
    "mapPin": "foodPin"
  },
  {
    "id": "e119",
    "nameEng": "割烹 中岛（新宿店）",
    "addressEng": "",
    "nameChi": "割烹 中岛（新宿店）",
    "addressChi": "東京都新宿區3 32-5 ShinjukuNichihara Bldg. B1 160-0022",
    "phone": "+81 3-3356-4534",
    "lat": 35.690273,
    "long": 139.703903,
    "cities": 40,
    "country": 84,
    "stayTime": 1,
    "img": "https://jiroyiu.github.io/img/foodicon.png",
    "mapPin": "foodPin"
  },
  {
    "id": "e120",
    "nameEng": "吉幸-怀石料理",
    "addressEng": "",
    "nameChi": "吉幸-怀石料理",
    "addressChi": "東京都台東區2-2-12 Asakusa 111-0032",
    "phone": "+81 3-5828-8833",
    "lat": 35.713371,
    "long": 139.79718,
    "cities": 40,
    "country": 84,
    "stayTime": 1,
    "img": "https://jiroyiu.github.io/img/foodicon.png",
    "mapPin": "foodPin"
  },
  {
    "id": "e121",
    "nameEng": "大黑家天妇罗",
    "addressEng": "",
    "nameChi": "大黑家天妇罗",
    "addressChi": "東京都台東區Asakusa1-38-10 Asakusa 111-0032",
    "phone": "+81 3-3844-2222",
    "lat": 35.71283,
    "long": 139.795715,
    "cities": 40,
    "country": 84,
    "stayTime": 1,
    "img": "https://jiroyiu.github.io/img/foodicon.png",
    "mapPin": "foodPin"
  },
  {
    "id": "e122",
    "nameEng": "天丼Tenya天妇罗餐馆（浅草店）",
    "addressEng": "",
    "nameChi": "天丼Tenya天妇罗餐馆（浅草店）",
    "addressChi": "東京都台東區1-9-1 Asakusa",
    "phone": "+81 3-5828-5918",
    "lat": 35.711391,
    "long": 139.792938,
    "cities": 40,
    "country": 84,
    "stayTime": 1,
    "img": "https://jiroyiu.github.io/img/foodicon.png",
    "mapPin": "foodPin"
  },
  {
    "id": "e123",
    "nameEng": "女仆咖啡厅（涩谷店）",
    "addressEng": "",
    "nameChi": "女仆咖啡厅（涩谷店）",
    "addressChi": "東京都涉谷區30-1 UdagawachoB1F Horaiya Bldg. 150-0042",
    "phone": "+81 3-6272-3263",
    "lat": 35.660885,
    "long": 139.698151,
    "cities": 40,
    "country": 84,
    "stayTime": 1,
    "img": "https://jiroyiu.github.io/img/foodicon.png",
    "mapPin": "foodPin"
  },
  {
    "id": "e124",
    "nameEng": "寿司-数寄屋桥次郎（六本木Hills店）",
    "addressEng": "",
    "nameChi": "寿司-数寄屋桥次郎（六本木Hills店）",
    "addressChi": "東京都港區6-12-2 RoppongiRoppongi Hills Keyakizaka-dori 3F",
    "phone": "+81 3-5413-6626",
    "lat": 35.658665,
    "long": 139.729355,
    "cities": 40,
    "country": 84,
    "stayTime": 1,
    "img": "https://jiroyiu.github.io/img/foodicon.png",
    "mapPin": "foodPin"
  },
  {
    "id": "e125",
    "nameEng": "寿司-数寄屋桥次郎（本店）",
    "addressEng": "",
    "nameChi": "寿司-数寄屋桥次郎（本店）",
    "addressChi": "東京都中央區Ginza4-2-15 GinzaTsukamoto Sogyo Bldg. B1F 104-0061",
    "phone": "+81 3-3535-3600",
    "lat": 35.673046,
    "long": 139.76384,
    "cities": 40,
    "country": 84,
    "stayTime": 1,
    "img": "https://jiroyiu.github.io/img/foodicon.png",
    "mapPin": "foodPin"
  },
  {
    "id": "e126",
    "nameEng": "寿司料理-Ino濑",
    "addressEng": "",
    "nameChi": "寿司料理-Ino濑",
    "addressChi": "東京都品川區2-20-2 Higashigotanda1f",
    "phone": "+81 3-3443-1719",
    "lat": 35.62513,
    "long": 139.730209,
    "cities": 40,
    "country": 84,
    "stayTime": 1,
    "img": "https://jiroyiu.github.io/img/foodicon.png",
    "mapPin": "foodPin"
  },
  {
    "id": "e127",
    "nameEng": "小鸟无麸质咖啡馆",
    "addressEng": "",
    "nameChi": "小鸟无麸质咖啡馆",
    "addressChi": "東京都涉谷區1-1-20 UeharaJP Bldg. 3F 151-0064",
    "phone": "+81 3-3460-8282",
    "lat": 35.668331,
    "long": 139.6875,
    "cities": 40,
    "country": 84,
    "stayTime": 1,
    "img": "https://jiroyiu.github.io/img/foodicon.png",
    "mapPin": "foodPin"
  },
  {
    "id": "e128",
    "nameEng": "并木 薮荞麦",
    "addressEng": "",
    "nameChi": "并木 薮荞麦",
    "addressChi": "東京都台東區2-11-9 Kaminarimon 111-0034",
    "phone": "+81 3-3841-1340",
    "lat": 35.70961,
    "long": 139.796265,
    "cities": 40,
    "country": 84,
    "stayTime": 1,
    "img": "https://jiroyiu.github.io/img/foodicon.png",
    "mapPin": "foodPin"
  },
  {
    "id": "e129",
    "nameEng": "御好烧-Kiji（丸之内店）",
    "addressEng": "",
    "nameChi": "御好烧-Kiji（丸之内店）",
    "addressChi": "東京都千代田區2-7-3 MarunouchiTokyo Building B1 100-6490",
    "phone": "+81 3-3216-3123",
    "lat": 35.678238,
    "long": 139.765091,
    "cities": 40,
    "country": 84,
    "stayTime": 1,
    "img": "https://jiroyiu.github.io/img/foodicon.png",
    "mapPin": "foodPin"
  },
  {
    "id": "e130",
    "nameEng": "御果子司 龟十",
    "addressEng": "",
    "nameChi": "御果子司 龟十",
    "addressChi": "東京都台東區2-18-11 Kaminarimon 111-0034",
    "phone": "+81 3-3841-2210",
    "lat": 35.710865,
    "long": 139.796875,
    "cities": 40,
    "country": 84,
    "stayTime": 1,
    "img": "https://jiroyiu.github.io/img/foodicon.png",
    "mapPin": "foodPin"
  },
  {
    "id": "e131",
    "nameEng": "忍者主题餐厅（赤坂店）",
    "addressEng": "",
    "nameChi": "忍者主题餐厅（赤坂店）",
    "addressChi": "東京都千代田區2-14-3 NagatachoAkasaka Tokyu Plaza 1 F 100-0014",
    "phone": "+81 3-5157-3936",
    "lat": 35.677982,
    "long": 139.736908,
    "cities": 40,
    "country": 84,
    "stayTime": 1,
    "img": "https://jiroyiu.github.io/img/foodicon.png",
    "mapPin": "foodPin"
  },
  {
    "id": "e132",
    "nameEng": "拉面-茑",
    "addressEng": "",
    "nameChi": "拉面-茑",
    "addressChi": "東京都豊島區1-14-1 Sugamo 170-0002",
    "phone": "+81 3-3943-1007",
    "lat": 35.732861,
    "long": 139.74054,
    "cities": 40,
    "country": 84,
    "stayTime": 1,
    "img": "https://jiroyiu.github.io/img/foodicon.png",
    "mapPin": "foodPin"
  },
  {
    "id": "e133",
    "nameEng": "新宿天妇罗-Tsuna八（总本店）",
    "addressEng": "",
    "nameChi": "新宿天妇罗-Tsuna八（总本店）",
    "addressChi": "東京都新宿區3-31-8 Shinjuku 160-0022",
    "phone": "+81 3-3352-1012",
    "lat": 35.690868,
    "long": 139.703384,
    "cities": 40,
    "country": 84,
    "stayTime": 1,
    "img": "https://jiroyiu.github.io/img/foodicon.png",
    "mapPin": "foodPin"
  },
  {
    "id": "e134",
    "nameEng": "新宿御苑 樱花拉面",
    "addressEng": "",
    "nameChi": "新宿御苑 樱花拉面",
    "addressChi": "東京都新宿區1-11-7 Shinjuku1st Floor 160-0022",
    "phone": "+81 3-5925-8426",
    "lat": 35.688663,
    "long": 139.71315,
    "cities": 40,
    "country": 84,
    "stayTime": 1,
    "img": "https://jiroyiu.github.io/img/foodicon.png",
    "mapPin": "foodPin"
  },
  {
    "id": "e135",
    "nameEng": "板前壽司 赤坂店",
    "addressEng": "",
    "nameChi": "板前壽司 赤坂店",
    "addressChi": "東京都港區3-8-17 Akasaka1F 2F Pan Japan Bldg 107-0052",
    "phone": "+81 3-6659-7288",
    "lat": 35.676186,
    "long": 139.737061,
    "cities": 40,
    "country": 84,
    "stayTime": 1,
    "img": "https://jiroyiu.github.io/img/foodicon.png",
    "mapPin": "foodPin"
  },
  {
    "id": "e136",
    "nameEng": "梅丘寿司之美登利（涩谷总本店）",
    "addressEng": "",
    "nameChi": "梅丘寿司之美登利（涩谷总本店）",
    "addressChi": "東京都涉谷區1-12-3 DogenzakaShibuya Mark City East 4F 150-0043",
    "phone": "+81 3-5458-0002",
    "lat": 35.658512,
    "long": 139.698792,
    "cities": 40,
    "country": 84,
    "stayTime": 1,
    "img": "https://jiroyiu.github.io/img/foodicon.png",
    "mapPin": "foodPin"
  },
  {
    "id": "e137",
    "nameEng": "梅丘寿司之美登利（赤坂店）",
    "addressEng": "",
    "nameChi": "梅丘寿司之美登利（赤坂店）",
    "addressChi": "東京都港區Akasaka5-3-1 AkasakaAkasaka Biz Tower 2F 107-6302",
    "phone": "+81 3-5545-5516",
    "lat": 35.672886,
    "long": 139.735992,
    "cities": 40,
    "country": 84,
    "stayTime": 1,
    "img": "https://jiroyiu.github.io/img/foodicon.png",
    "mapPin": "foodPin"
  },
  {
    "id": "e138",
    "nameEng": "梅丘寿司之美登利（银座店）",
    "addressEng": "",
    "nameChi": "梅丘寿司之美登利（银座店）",
    "addressChi": "東京都中央區7-2 GinzaTokyo Highway Yamashita Bldg. 1F 104-0061",
    "phone": "+81 3-5568-1212",
    "lat": 35.670315,
    "long": 139.75975,
    "cities": 40,
    "country": 84,
    "stayTime": 1,
    "img": "https://jiroyiu.github.io/img/foodicon.png",
    "mapPin": "foodPin"
  },
  {
    "id": "e139",
    "nameEng": "権八（西麻布店）",
    "addressEng": "",
    "nameChi": "権八（西麻布店）",
    "addressChi": "東京都港區1-13-11 Nishi-Azabu 106-0031",
    "phone": "+81 3-5771-0170",
    "lat": 35.66003,
    "long": 139.723419,
    "cities": 40,
    "country": 84,
    "stayTime": 1,
    "img": "https://jiroyiu.github.io/img/foodicon.png",
    "mapPin": "foodPin"
  },
  {
    "id": "e140",
    "nameEng": "沼津港(新宿店)",
    "addressEng": "",
    "nameChi": "沼津港(新宿店)",
    "addressChi": "東京都新宿區3-34-16 Shinjuku1F Ikeda Plaza Bldg 160-0022",
    "phone": "+81 3-5361-8228",
    "lat": 35.690395,
    "long": 139.703094,
    "cities": 40,
    "country": 84,
    "stayTime": 1,
    "img": "https://jiroyiu.github.io/img/foodicon.png",
    "mapPin": "foodPin"
  },
  {
    "id": "e141",
    "nameEng": "火锅Zo（新宿三丁目店）",
    "addressEng": "",
    "nameChi": "火锅Zo（新宿三丁目店）",
    "addressChi": "東京都新宿區3-30-11 ShinjukuShinjuku Takano Dai2 Bldg 8F 160-0022",
    "phone": "+81 3-5363-4629",
    "lat": 35.691158,
    "long": 139.703674,
    "cities": 40,
    "country": 84,
    "stayTime": 1,
    "img": "https://jiroyiu.github.io/img/foodicon.png",
    "mapPin": "foodPin"
  },
  {
    "id": "e142",
    "nameEng": "炸牛排 Moto村（涩谷店）",
    "addressEng": "",
    "nameChi": "炸牛排 Moto村（涩谷店）",
    "addressChi": "東京都涉谷區3-18-10 ShibuyaB1F Ono Bldg. 2-Gokan 150-0002",
    "phone": "+81 3-3797-3735",
    "lat": 35.656944,
    "long": 139.704132,
    "cities": 40,
    "country": 84,
    "stayTime": 1,
    "img": "https://jiroyiu.github.io/img/foodicon.png",
    "mapPin": "foodPin"
  },
  {
    "id": "e143",
    "nameEng": "炸牛排Moto村（新宿店）",
    "addressEng": "",
    "nameChi": "炸牛排Moto村（新宿店）",
    "addressChi": "東京都新宿區3-32-2 ShinjukuB1f 160-0022",
    "phone": "+81 3-3354-0171",
    "lat": 35.689739,
    "long": 139.703827,
    "cities": 40,
    "country": 84,
    "stayTime": 1,
    "img": "https://jiroyiu.github.io/img/foodicon.png",
    "mapPin": "foodPin"
  },
  {
    "id": "e144",
    "nameEng": "炸豬排Mai-sen 涉谷東橫店",
    "addressEng": "",
    "nameChi": "炸豬排Mai-sen 涉谷東橫店",
    "addressChi": "東京都涉谷區2-24-1 ShibuyaTokyu Department Toyoko Store 9F 150-8319",
    "phone": "+81 3-3477-4582",
    "lat": 35.658562,
    "long": 139.700897,
    "cities": 40,
    "country": 84,
    "stayTime": 1,
    "img": "https://jiroyiu.github.io/img/foodicon.png",
    "mapPin": "foodPin"
  },
  {
    "id": "e145",
    "nameEng": "炸豬排Mai-sen 青山總店",
    "addressEng": "",
    "nameChi": "炸豬排Mai-sen 青山總店",
    "addressChi": "東京都涉谷區4-8-5 Jingumae 150-0001",
    "phone": "+81 120-428-485",
    "lat": 35.667908,
    "long": 139.711517,
    "cities": 40,
    "country": 84,
    "stayTime": 1,
    "img": "https://jiroyiu.github.io/img/foodicon.png",
    "mapPin": "foodPin"
  },
  {
    "id": "e146",
    "nameEng": "生田神户牛肉料理",
    "addressEng": "",
    "nameChi": "生田神户牛肉料理",
    "addressChi": "東京都涉谷區1-31-15 YoyogiNo.2 Takarayama Bldg.1F",
    "phone": "+81 3-5304-7240",
    "lat": 35.681732,
    "long": 139.702133,
    "cities": 40,
    "country": 84,
    "stayTime": 1,
    "img": "https://jiroyiu.github.io/img/foodicon.png",
    "mapPin": "foodPin"
  },
  {
    "id": "e147",
    "nameEng": "白秋",
    "addressEng": "",
    "nameChi": "白秋",
    "addressChi": "東京都涉谷區17-10 Sakuragaokacho1F MCD Bldg. 150-0031",
    "phone": "+81 3-3461-0546",
    "lat": 35.656357,
    "long": 139.700958,
    "cities": 40,
    "country": 84,
    "stayTime": 1,
    "img": "https://jiroyiu.github.io/img/foodicon.png",
    "mapPin": "foodPin"
  },
  {
    "id": "e148",
    "nameEng": "神戶牛懷石511",
    "addressEng": "",
    "nameChi": "神戶牛懷石511",
    "addressChi": "東京都港區AkasakaAkasaka 4-3-28Dear Plaza Akasaka, B1 107-0052",
    "phone": "+81 3-6685-0511",
    "lat": 35.674721,
    "long": 139.735321,
    "cities": 40,
    "country": 84,
    "stayTime": 1,
    "img": "https://jiroyiu.github.io/img/foodicon.png",
    "mapPin": "foodPin"
  },
  {
    "id": "e149",
    "nameEng": "筑地 寿司清（本店）",
    "addressEng": "",
    "nameChi": "筑地 寿司清（本店）",
    "addressChi": "東京都中央區4-13-9 Tsukiji 104-0045",
    "phone": "+81 3-3541-7720",
    "lat": 35.664677,
    "long": 139.770523,
    "cities": 40,
    "country": 84,
    "stayTime": 1,
    "img": "https://jiroyiu.github.io/img/foodicon.png",
    "mapPin": "foodPin"
  },
  {
    "id": "e150",
    "nameEng": "銀座牛庵",
    "addressEng": "",
    "nameChi": "銀座牛庵",
    "addressChi": "東京都中央區6-13-6 GinzaB1F Kakyoshokokai Bldg. 104-0061",
    "phone": "+81 3-3542-0226",
    "lat": 35.668945,
    "long": 139.765167,
    "cities": 40,
    "country": 84,
    "stayTime": 1,
    "img": "https://jiroyiu.github.io/img/foodicon.png",
    "mapPin": "foodPin"
  },
  {
    "id": "e151",
    "nameEng": "铁板Baby（新宿东入口店）",
    "addressEng": "",
    "nameChi": "铁板Baby（新宿东入口店）",
    "addressChi": "東京都新宿區1-17-4 KabukichoPocket Bldg. 1st basement floor 160-0021",
    "phone": "+81 3-3204-1333",
    "lat": 35.694038,
    "long": 139.701157,
    "cities": 40,
    "country": 84,
    "stayTime": 1,
    "img": "https://jiroyiu.github.io/img/foodicon.png",
    "mapPin": "foodPin"
  },
  {
    "id": "e152",
    "nameEng": "阿夫利拉面（惠比寿店）",
    "addressEng": "",
    "nameChi": "阿夫利拉面（惠比寿店）",
    "addressChi": "東京都涉谷區Ebisu1-1-7 Ebisu117 Bldg.1F 150-0013",
    "phone": "+81 3-5795-0750",
    "lat": 35.648315,
    "long": 139.710831,
    "cities": 40,
    "country": 84,
    "stayTime": 1,
    "img": "https://jiroyiu.github.io/img/foodicon.png",
    "mapPin": "foodPin"
  },
  {
    "id": "e153",
    "nameEng": "韓之廚房 Kadochika店",
    "addressEng": "",
    "nameChi": "韓之廚房 Kadochika店",
    "addressChi": "東京都涉谷區2-28-5 DogenzakaShuei Bldg B1F 150-0043",
    "phone": "+81 3-6416-1358",
    "lat": 35.658932,
    "long": 139.69725,
    "cities": 40,
    "country": 84,
    "stayTime": 1,
    "img": "https://jiroyiu.github.io/img/foodicon.png",
    "mapPin": "foodPin"
  },
  {
    "id": "e154",
    "nameEng": "韓之廚房 道玄坂店",
    "addressEng": "",
    "nameChi": "韓之廚房 道玄坂店",
    "addressChi": "東京都涉谷區2-29-8 DogenzakaDogenzaka Center Bldg 7F 150-0043",
    "phone": "+81 3-5489-7655",
    "lat": 35.659039,
    "long": 139.697876,
    "cities": 40,
    "country": 84,
    "stayTime": 1,
    "img": "https://jiroyiu.github.io/img/foodicon.png",
    "mapPin": "foodPin"
  },
  {
    "id": "e155",
    "nameEng": "風雲児",
    "addressEng": "",
    "nameChi": "風雲児",
    "addressChi": "東京都涉谷區YoyogiYoyogi 151-0053",
    "phone": "+81 3-6413-8480",
    "lat": 35.687119,
    "long": 139.696564,
    "cities": 40,
    "country": 84,
    "stayTime": 1,
    "img": "https://jiroyiu.github.io/img/foodicon.png",
    "mapPin": "foodPin"
  },
  {
    "id": "e156",
    "nameEng": "鬼金棒 味增拉面",
    "addressEng": "",
    "nameChi": "鬼金棒 味增拉面",
    "addressChi": "東京都千代田區2-10-10 Kajicho 101-0044",
    "phone": "+81 3-3256-2960",
    "lat": 35.693668,
    "long": 139.772461,
    "cities": 40,
    "country": 84,
    "stayTime": 1,
    "img": "https://jiroyiu.github.io/img/foodicon.png",
    "mapPin": "foodPin"
  },
  {
    "id": "e157",
    "nameEng": "鳗鱼屋-野田岩（麻布饭仓本店）",
    "addressEng": "",
    "nameChi": "鳗鱼屋-野田岩（麻布饭仓本店）",
    "addressChi": "東京都港區1-5-4 Higashi Azabu 106-0044",
    "phone": "+81 3-3583-7852",
    "lat": 35.658154,
    "long": 139.743607,
    "cities": 40,
    "country": 84,
    "stayTime": 1,
    "img": "https://jiroyiu.github.io/img/foodicon.png",
    "mapPin": "foodPin"
  },
  {
    "id": "e158",
    "nameEng": "麺屋武藏",
    "addressEng": "",
    "nameChi": "麺屋武藏",
    "addressChi": "東京都新宿區Nishishinjuku7-2-6 NishishinjukuK1 Bldg. 1F",
    "phone": "+81 3-3363-4634",
    "lat": 35.695572,
    "long": 139.698563,
    "cities": 40,
    "country": 84,
    "stayTime": 1,
    "img": "https://jiroyiu.github.io/img/foodicon.png",
    "mapPin": "foodPin"
  },
  {
    "id": "e159",
    "nameEng": "龙之家拉面（泷桥大道店）",
    "addressEng": "",
    "nameChi": "龙之家拉面（泷桥大道店）",
    "addressChi": "東京都新宿區7-4-5 NishishinjukuFujino Bldg. 1F 160-0023",
    "phone": "+81 3-6304-0899",
    "lat": 35.69603,
    "long": 139.698257,
    "cities": 40,
    "country": 84,
    "stayTime": 1,
    "img": "https://jiroyiu.github.io/img/foodicon.png",
    "mapPin": "foodPin"
  }
]
