[
  {
    "id": "s0",
    "nameEng": "Tobu Hotel Levant Tokyo",
    "addressEng": "東京都墨田區1-2-2 Kinshi 130-0013",
    "nameChi": "東京東武 Levant飯店 (墨田區)",
    "cities": 40,
    "country": 84,
    "stayTime": "",
    "lat": 35.697411,
    "long": 139.810928,
    "img": "https://jiroyiu.github.io/img/stayicon.png",
    "mapPin": "stayPin"
  },
  {
    "id": "s1",
    "nameEng": "Sakura Fleur Aoyama",
    "addressEng": "東京都澀谷區2-14-15 Shibuya 150-0002",
    "nameChi": "青山櫻花飯店 (澀谷區)",
    "cities": 40,
    "country": 84,
    "stayTime": "",
    "lat": 35.659588,
    "long": 139.705612,
    "img": "https://jiroyiu.github.io/img/stayicon.png",
    "mapPin": "stayPin"
  },
  {
    "id": "s2",
    "nameEng": "Millennium Mitsui Garden Hotel Tokyo",
    "addressEng": "東京都中央區5-11-1 Ginza 104-0061",
    "nameChi": "東京千禧三井花園酒店 (中央區)",
    "cities": 40,
    "country": 84,
    "stayTime": "",
    "lat": 35.670052,
    "long": 139.766418,
    "img": "https://jiroyiu.github.io/img/stayicon.png",
    "mapPin": "stayPin"
  },
  {
    "id": "s3",
    "nameEng": "Hotel Sunroute Higashi Shinjuku",
    "addressEng": "東京都新宿區7-27-9 Shinjuku 160-0022",
    "nameChi": "東新宿燦路都酒店 (新宿區)",
    "cities": 40,
    "country": 84,
    "stayTime": "",
    "lat": 35.698685,
    "long": 139.707947,
    "img": "https://jiroyiu.github.io/img/stayicon.png",
    "mapPin": "stayPin"
  },
  {
    "id": "s4",
    "nameEng": "Park Hotel Tokyo",
    "addressEng": "東京都港區1 7 1 Higashi ShimbashiShiodome Media Tower 105-7227",
    "nameChi": "東京花園酒店 (港區)",
    "cities": 40,
    "country": 84,
    "stayTime": "",
    "lat": 35.663233,
    "long": 139.759544,
    "img": "https://jiroyiu.github.io/img/stayicon.png",
    "mapPin": "stayPin"
  },
  {
    "id": "s5",
    "nameEng": "JR Kyushu Hotel Blossom Shinjuku",
    "addressEng": "東京都澀谷區2-6-2 Yoyogi 460-0003",
    "nameChi": "JR九州花酒店新宿館 (澀谷區)",
    "cities": 40,
    "country": 84,
    "stayTime": "",
    "lat": 35.687988,
    "long": 139.698349,
    "img": "https://jiroyiu.github.io/img/stayicon.png",
    "mapPin": "stayPin"
  },
  {
    "id": "s6",
    "nameEng": "InterContinental Hotel Tokyo Bay",
    "addressEng": "東京都港區1-16-2 Kaigan 105-0022",
    "nameChi": "東京灣洲際酒店 (港區)",
    "cities": 40,
    "country": 84,
    "stayTime": "",
    "lat": 35.653149,
    "long": 139.76207,
    "img": "https://jiroyiu.github.io/img/stayicon.png",
    "mapPin": "stayPin"
  },
  {
    "id": "s7",
    "nameEng": "Dormy inn Premium Shibuya Jingumae",
    "addressEng": "東京都澀谷區6-24-4 Jingumae 150-0001",
    "nameChi": "Dormy Inn Premium 澀谷神宮前 (澀谷區)",
    "cities": 40,
    "country": 84,
    "stayTime": "",
    "lat": 35.665728,
    "long": 139.702291,
    "img": "https://jiroyiu.github.io/img/stayicon.png",
    "mapPin": "stayPin"
  },
  {
    "id": "s8",
    "nameEng": "Mitsui Garden Hotel Ginza Premier",
    "addressEng": "東京都中央區8-13-1 Ginza 104-0061",
    "nameChi": "銀座三井花園酒店 (中央區)",
    "cities": 40,
    "country": 84,
    "stayTime": "",
    "lat": 35.667147,
    "long": 139.76319,
    "img": "https://jiroyiu.github.io/img/stayicon.png",
    "mapPin": "stayPin"
  },
  {
    "id": "s9",
    "nameEng": "Hotel Metropolitan Tokyo Ikebukuro",
    "addressEng": "東京都豊島區1-6-1 Nishiikebukuro 171-0021",
    "nameChi": "大都會大飯店 東京站 (豊島區)",
    "cities": 40,
    "country": 84,
    "stayTime": "",
    "lat": 35.728519,
    "long": 139.708328,
    "img": "https://jiroyiu.github.io/img/stayicon.png",
    "mapPin": "stayPin"
  },
  {
    "id": "s10",
    "nameEng": "Shibuya Excel Hotel Tokyu",
    "addressEng": "東京都澀谷區1-12-2 Dogenzaka 150-0043",
    "nameChi": "東急卓越飯店 澀谷 (澀谷區)",
    "cities": 40,
    "country": 84,
    "stayTime": "",
    "lat": 35.658886,
    "long": 139.699646,
    "img": "https://jiroyiu.github.io/img/stayicon.png",
    "mapPin": "stayPin"
  },
  {
    "id": "s11",
    "nameEng": "Hotel Niwa Tokyo",
    "addressEng": "東京都千代田區1-1-16 Kanda Misakicho 101-0061",
    "nameChi": "東京 庭酒店 (千代田區)",
    "cities": 40,
    "country": 84,
    "stayTime": "",
    "lat": 35.700623,
    "long": 139.756683,
    "img": "https://jiroyiu.github.io/img/stayicon.png",
    "mapPin": "stayPin"
  },
  {
    "id": "s12",
    "nameEng": "The Tokyo Station Hotel",
    "addressEng": "東京都千代田區Marunouchi1-9-1 100-0005",
    "nameChi": "The Tokyo Station飯店 (Marunouchi)",
    "cities": 40,
    "country": 84,
    "stayTime": "",
    "lat": 35.681316,
    "long": 139.765808,
    "img": "https://jiroyiu.github.io/img/stayicon.png",
    "mapPin": "stayPin"
  },
  {
    "id": "s13",
    "nameEng": "Hotel Century Southern Tower",
    "addressEng": "東京都澀谷區2-2-1 Yoyogi 151-8583",
    "nameChi": "世紀南悅酒店 (澀谷區)",
    "cities": 40,
    "country": 84,
    "stayTime": "",
    "lat": 35.68644,
    "long": 139.700409,
    "img": "https://jiroyiu.github.io/img/stayicon.png",
    "mapPin": "stayPin"
  },
  {
    "id": "s14",
    "nameEng": "Cerulean Tower Tokyu Hotel",
    "addressEng": "東京都澀谷區26-1 Sakuragaokacho 150-8512",
    "nameChi": "東急飯店 Cerulean Tower (澀谷區)",
    "cities": 40,
    "country": 84,
    "stayTime": "",
    "lat": 35.656351,
    "long": 139.699629,
    "img": "https://jiroyiu.github.io/img/stayicon.png",
    "mapPin": "stayPin"
  },
  {
    "id": "s15",
    "nameEng": "The Royal Park Hotel Tokyo Shiodome",
    "addressEng": "東京都港區Higashishimbashi1-6-3 Higashi-Shimbashi 105-8333",
    "nameChi": "THE 皇家花園飯店 東京汐留 (Higashishimbashi)",
    "cities": 40,
    "country": 84,
    "stayTime": "",
    "lat": 35.66431,
    "long": 139.760452,
    "img": "https://jiroyiu.github.io/img/stayicon.png",
    "mapPin": "stayPin"
  },
  {
    "id": "s16",
    "nameEng": "Hilton Tokyo Odaiba",
    "addressEng": "東京都港區1-9-1 Daiba 135-0091",
    "nameChi": "日航飯店 東京 (港區)",
    "cities": 40,
    "country": 84,
    "stayTime": "",
    "lat": 35.626434,
    "long": 139.770691,
    "img": "https://jiroyiu.github.io/img/stayicon.png",
    "mapPin": "stayPin"
  },
  {
    "id": "s17",
    "nameEng": "Tokyo Dome Hotel",
    "addressEng": "東京都文京區1-3-61 Koraku 112-8562",
    "nameChi": "東京圓頂飯店 (東京巨蛋) (文京區)",
    "cities": 40,
    "country": 84,
    "stayTime": "",
    "lat": 35.703613,
    "long": 139.753433,
    "img": "https://jiroyiu.github.io/img/stayicon.png",
    "mapPin": "stayPin"
  },
  {
    "id": "s18",
    "nameEng": "Richmond Hotel Premier Tokyo Oshiage",
    "addressEng": "東京都墨田區1-10-3 Oshiage 131-0045",
    "nameChi": "東京押上普瑞米爾里士滿酒店 (墨田區)",
    "cities": 40,
    "country": 84,
    "stayTime": "",
    "lat": 35.710556,
    "long": 139.813751,
    "img": "https://jiroyiu.github.io/img/stayicon.png",
    "mapPin": "stayPin"
  },
  {
    "id": "s19",
    "nameEng": "Hotel Ryumeikan Tokyo",
    "addressEng": "東京都中央區1-3-22 Yaesu 103-0028",
    "nameChi": "東京龍名館飯店 (中央區)",
    "cities": 40,
    "country": 84,
    "stayTime": "",
    "lat": 35.683182,
    "long": 139.771103,
    "img": "https://jiroyiu.github.io/img/stayicon.png",
    "mapPin": "stayPin"
  },
  {
    "id": "s20",
    "nameEng": "Hundred Stay Tokyo Shinjuku",
    "addressEng": "東京都新宿區2-27-7 Hyakunincho 169-0073",
    "nameChi": "東京新宿Hundred Stay酒店 (新宿區)",
    "cities": 40,
    "country": 84,
    "stayTime": "",
    "lat": 35.702329,
    "long": 139.695311,
    "img": "https://jiroyiu.github.io/img/stayicon.png",
    "mapPin": "stayPin"
  },
  {
    "id": "s21",
    "nameEng": "Hotel Sardonyx Ueno",
    "addressEng": "東京都台東區6-6-7 Ueno 110-0005",
    "nameChi": "上野寶石飯店 (台東區)",
    "cities": 40,
    "country": 84,
    "stayTime": "",
    "lat": 35.70873,
    "long": 139.776028,
    "img": "https://jiroyiu.github.io/img/stayicon.png",
    "mapPin": "stayPin"
  },
  {
    "id": "s22",
    "nameEng": "Hotel Sunroute Plaza Shinjuku",
    "addressEng": "東京都澀谷區Yoyogi2-3-1 Yoyogi 151-0053",
    "nameChi": "新宿燦路都廣場大飯店 (Yoyogi)",
    "cities": 40,
    "country": 84,
    "stayTime": "",
    "lat": 35.687313,
    "long": 139.699142,
    "img": "https://jiroyiu.github.io/img/stayicon.png",
    "mapPin": "stayPin"
  },
  {
    "id": "s23",
    "nameEng": "Nishitetsu Inn Shinjuku",
    "addressEng": "東京都新宿區Nishishinjuku7-23-2 Nishi Shinjuku 160-0023",
    "nameChi": "西鐵INN 新宿 (Nishishinjuku)",
    "cities": 40,
    "country": 84,
    "stayTime": "",
    "lat": 35.694391,
    "long": 139.69442,
    "img": "https://jiroyiu.github.io/img/stayicon.png",
    "mapPin": "stayPin"
  },
  {
    "id": "s24",
    "nameEng": "Hotel Gracery Shinjuku",
    "addressEng": "東京都新宿區1-19-1 Kabukicho 160-0021",
    "nameChi": "新宿格拉斯麗飯店 (新宿區)",
    "cities": 40,
    "country": 84,
    "stayTime": "",
    "lat": 35.695152,
    "long": 139.701935,
    "img": "https://jiroyiu.github.io/img/stayicon.png",
    "mapPin": "stayPin"
  },
  {
    "id": "s25",
    "nameEng": "The Royal Park Hotel Tokyo Haneda",
    "addressEng": "東京都大田區2-6-5 Haneda AirportHaneda Airport International Terminal 144-0041",
    "nameChi": "THE 皇家花園飯店 東京羽田 (大田區)",
    "cities": 40,
    "country": 84,
    "stayTime": "",
    "lat": 35.546878,
    "long": 139.767726,
    "img": "https://jiroyiu.github.io/img/stayicon.png",
    "mapPin": "stayPin"
  },
  {
    "id": "s26",
    "nameEng": "Hilton Tokyo",
    "addressEng": "東京都新宿區Nishishinjuku6-6-2Shinjuku-Ku 160-0023",
    "nameChi": "希爾頓酒店 東京 (Nishishinjuku)",
    "cities": 40,
    "country": 84,
    "stayTime": "",
    "lat": 35.69266,
    "long": 139.69114,
    "img": "https://jiroyiu.github.io/img/stayicon.png",
    "mapPin": "stayPin"
  },
  {
    "id": "s27",
    "nameEng": "Citadines Central Shinjuku Tokyo",
    "addressEng": "東京都新宿區1-2-9 Kabukicho 160-0021",
    "nameChi": "Best Western飯店 東京新宿Astina (新宿區)",
    "cities": 40,
    "country": 84,
    "stayTime": "",
    "lat": 35.694397,
    "long": 139.704208,
    "img": "https://jiroyiu.github.io/img/stayicon.png",
    "mapPin": "stayPin"
  },
  {
    "id": "s28",
    "nameEng": "Grand Nikko Tokyo Daiba",
    "addressEng": "東京都港區Daiba2-6-1 135-8701",
    "nameChi": "東京台場日航大酒店 (Daiba)",
    "cities": 40,
    "country": 84,
    "stayTime": "",
    "lat": 35.625355,
    "long": 139.771362,
    "img": "https://jiroyiu.github.io/img/stayicon.png",
    "mapPin": "stayPin"
  },
  {
    "id": "s29",
    "nameEng": "Keio Plaza Hotel Tokyo",
    "addressEng": "東京都新宿區Nishishinjuku2-2-1 160-0023",
    "nameChi": "東京京王廣場飯店 (Nishishinjuku)",
    "cities": 40,
    "country": 84,
    "stayTime": "",
    "lat": 35.690151,
    "long": 139.694626,
    "img": "https://jiroyiu.github.io/img/stayicon.png",
    "mapPin": "stayPin"
  }
]
